loopIteration,time, axisP[0], axisP[1], axisP[2], axisI[0], axisI[1], axisI[2], axisD[0], axisD[1], axisD[2], rcCommand[0], rcCommand[1], rcCommand[2], rcCommand[3], vbatLatest (V), rssi, gyroADC[0], gyroADC[1], gyroADC[2], accSmooth[0], accSmooth[1], accSmooth[2], motor[0], motor[1], motor[2], motor[3], flightModeFlags (flags), stateFlags (flags), failsafePhase (flags), rxSignalReceived, rxFlightChannelsValid
0,52359280,0,0,-1,0,0,0,0,0,0,0,0,-1,1000,1.843,1023,-1,0,0,52,-245,4205,116,123,122,116,0,0, IDLE,0,0
256,52489660,0,0,-5,0,0,0,1,0,0,0,0,-1,1000,1.843,1023,0,0,1,54,-256,4202,116,136,140,118, ANGLE_MODE, GPS_FIX_HOME|GPS_FIX|SMALL_ANGLE, IDLE,1,1
264,52494002,1,0,-1,0,0,0,5,0,0,0,0,-1,1000,1.843,1023,-2,0,0,51,-268,4203,115,120,146,144, ANGLE_MODE, GPS_FIX_HOME|GPS_FIX|SMALL_ANGLE, IDLE,1,1
272,52498074,0,0,1,0,0,0,0,0,0,0,0,-1,1000,1.843,1023,0,0,-1,48,-278,4206,118,117,120,126, ANGLE_MODE, GPS_FIX_HOME|GPS_FIX|SMALL_ANGLE, IDLE,1,1
280,52502145,-1,0,0,0,0,0,-8,0,0,0,0,-1,1000,1.843,1023,2,0,0,49,-272,4206,155,162,117,118, ANGLE_MODE, GPS_FIX_HOME|GPS_FIX|SMALL_ANGLE, IDLE,1,1
288,52506219,0,0,-5,0,0,0,0,1,0,0,0,-1,1000,1.843,1023,1,0,1,50,-261,4204,126,140,143,115, ANGLE_MODE, GPS_FIX_HOME|GPS_FIX|SMALL_ANGLE, IDLE,1,1
296,52510292,0,0,-4,0,0,0,3,0,0,0,0,-1,1000,1.843,1023,0,0,1,47,-268,4206,116,135,149,129, ANGLE_MODE, GPS_FIX_HOME|GPS_FIX|SMALL_ANGLE, IDLE,1,1
304,52514368,1,0,0,0,0,0,5,-1,0,0,0,-1,1000,1.843,1023,-2,0,-1,40,-280,4209,116,121,144,151, ANGLE_MODE, GPS_FIX_HOME|GPS_FIX|SMALL_ANGLE, IDLE,1,1
312,52518409,0,0,2,0,0,0,0,0,0,0,0,-1,1000,1.843,1023,0,0,-1,47,-282,4210,124,115,116,124, ANGLE_MODE, GPS_FIX_HOME|GPS_FIX|SMALL_ANGLE, IDLE,1,1
320,52522488,-1,0,0,0,0,0,-8,0,0,0,0,-1,1000,1.843,1023,2,0,0,47,-269,4207,157,162,118,116, ANGLE_MODE, GPS_FIX_HOME|GPS_FIX|SMALL_ANGLE, IDLE,1,1
328,52526557,-1,0,-5,0,0,0,0,0,0,0,0,-1,1000,1.843,1023,1,0,1,45,-259,4207,123,141,139,115, ANGLE_MODE, GPS_FIX_HOME|GPS_FIX|SMALL_ANGLE, IDLE,1,1
336,52530611,0,0,-3,0,0,0,5,0,0,0,0,-1,1000,1.843,1023,-1,0,1,44,-269,4208,117,130,153,136, ANGLE_MODE, GPS_FIX_HOME|GPS_FIX|SMALL_ANGLE, IDLE,1,1
344,52534685,1,0,1,0,0,0,4,0,0,0,0,-1,1000,1.843,1023,-2,0,-1,46,-282,4210,121,117,137,146, ANGLE_MODE, GPS_FIX_HOME|GPS_FIX|SMALL_ANGLE, IDLE,1,1
352,52538740,0,0,1,0,0,0,-1,0,0,0,0,-1,1000,1.843,1023,0,0,-1,48,-275,4211,130,124,115,124, ANGLE_MODE, GPS_FIX_HOME|GPS_FIX|SMALL_ANGLE, IDLE,1,1
360,52542808,-2,0,-3,0,0,0,-9,0,0,0,0,-1,1000,1.843,1023,2,0,1,45,-253,4207,162,179,129,116, ANGLE_MODE, GPS_FIX_HOME|GPS_FIX|SMALL_ANGLE, IDLE,1,1
368,52546893,0,0,-5,0,0,0,1,1,0,0,0,-1,1000,1.843,1023,0,0,1,47,-253,4206,120,137,145,117, ANGLE_MODE, GPS_FIX_HOME|GPS_FIX|SMALL_ANGLE, IDLE,1,1
376,52550973,1,0,-1,0,0,0,8,0,0,0,0,-1,1000,1.843,1023,-2,0,0,45,-269,4208,115,123,159,155, ANGLE_MODE, GPS_FIX_HOME|GPS_FIX|SMALL_ANGLE, IDLE,1,1
384,52555038,1,0,1,0,0,0,2,0,0,0,0,-1,1000,1.843,1023,-2,0,-1,48,-278,4210,121,118,126,138, ANGLE_MODE, GPS_FIX_HOME|GPS_FIX|SMALL_ANGLE, IDLE,1,1
392,52559097,-1,0,0,0,0,0,-6,0,0,0,0,-1,1000,1.843,1023,1,0,-1,49,-262,4209,148,147,115,118, ANGLE_MODE, GPS_FIX_HOME|GPS_FIX|SMALL_ANGLE, IDLE,1,1
400,52563184,-2,0,-5,0,0,0,-7,0,0,0,0,-1,1000,1.843,1023,2,0,1,47,-244,4207,155,177,138,115, ANGLE_MODE, GPS_FIX_HOME|GPS_FIX|SMALL_ANGLE, IDLE,1,1
408,52567245,0,0,-4,0,0,0,4,1,0,0,0,-1,1000,1.843,1023,0,0,1,49,-256,4209,118,131,154,132, ANGLE_MODE, GPS_FIX_HOME|GPS_FIX|SMALL_ANGLE, IDLE,1,1
416,52571327,2,0,0,0,0,0,10,0,0,0,0,-1,1000,1.843,1023,-3,0,-1,48,-274,4212,116,119,167,173, ANGLE_MODE, GPS_FIX_HOME|GPS_FIX|SMALL_ANGLE, IDLE,1,1
424,52575389,0,0,2,0,0,0,-2,0,0,0,0,-1,1000,1.843,1023,-1,0,-1,52,-274,4214,135,125,116,125, ANGLE_MODE, GPS_FIX_HOME|GPS_FIX|SMALL_ANGLE, IDLE,1,1
432,52579456,-2,0,-2,0,0,0,-10,0,0,0,0,-1,1000,1.843,1023,2,0,0,62,-248,4210,167,179,122,117, ANGLE_MODE, GPS_FIX_HOME|GPS_FIX|SMALL_ANGLE, IDLE,1,1
440,52583517,-1,0,-7,0,0,0,-1,1,0,0,0,-1,1000,1.843,1023,1,0,2,73,-249,4210,131,157,150,115, ANGLE_MODE, GPS_FIX_HOME|GPS_FIX|SMALL_ANGLE, IDLE,1,1
448,52587596,1,0,-3,0,0,0,9,0,0,0,0,-1,1000,1.843,1023,-2,0,1,77,-275,4212,116,131,178,160, ANGLE_MODE, GPS_FIX_HOME|GPS_FIX|SMALL_ANGLE, IDLE,1,1
456,52591913,2,0,1,0,0,0,8,-1,0,0,0,-1,1000,1.843,1023,-3,0,-1,79,-285,4212,120,118,156,168, ANGLE_MODE, GPS_FIX_HOME|GPS_FIX|SMALL_ANGLE, IDLE,1,1
464,52595964,-1,0,1,0,0,0,-10,0,0,0,0,-1,1000,1.843,1023,1,0,-1,78,-266,4208,167,167,115,123, ANGLE_MODE, GPS_FIX_HOME|GPS_FIX|SMALL_ANGLE, IDLE,1,1
472,52600053,-2,0,-4,0,0,0,-10,0,0,0,0,-1,1000,1.843,1023,3,0,1,75,-241,4200,167,185,134,115, ANGLE_MODE, GPS_FIX_HOME|GPS_FIX|SMALL_ANGLE, IDLE,1,1
480,52604113,0,0,-3,0,0,0,8,1,0,0,0,-1,1000,1.852,1023,-1,0,1,79,-261,4200,118,127,170,149, ANGLE_MODE, GPS_FIX_HOME|GPS_FIX|SMALL_ANGLE, IDLE,1,1
488,52608168,3,0,0,0,0,0,12,-1,0,0,0,-1,1000,1.852,1023,-4,0,-1,76,-288,4205,116,120,179,185, ANGLE_MODE, GPS_FIX_HOME|GPS_FIX|SMALL_ANGLE, IDLE,1,1
496,52612233,0,0,1,0,0,0,-3,0,0,0,0,-1,1000,1.852,1023,-1,0,-1,71,-287,4204,128,124,115,122, ANGLE_MODE, GPS_FIX_HOME|GPS_FIX|SMALL_ANGLE, IDLE,1,1
504,52616327,-3,0,-4,0,0,0,-15,0,0,0,0,-1,1000,1.852,1023,3,0,1,68,-253,4197,189,210,131,117, ANGLE_MODE, GPS_FIX_HOME|GPS_FIX|SMALL_ANGLE, IDLE,1,1
512,52620378,-1,0,-5,0,0,0,-2,1,0,0,0,-1,1000,1.843,1023,2,0,1,65,-245,4195,136,151,143,115, ANGLE_MODE, GPS_FIX_HOME|GPS_FIX|SMALL_ANGLE, IDLE,1,1
520,52624447,3,0,0,0,0,0,16,0,0,0,0,-1,1000,1.843,1023,-3,0,0,62,-278,4200,115,118,196,194, ANGLE_MODE, GPS_FIX_HOME|GPS_FIX|SMALL_ANGLE, IDLE,1,1
528,52628556,2,0,0,0,0,0,7,0,0,0,0,-1,1000,1.843,1023,-3,0,-1,58,-299,4206,117,118,154,162, ANGLE_MODE, GPS_FIX_HOME|GPS_FIX|SMALL_ANGLE, IDLE,1,1
536,52632616,-2,0,-2,0,0,0,-16,0,0,0,0,-1,1000,1.843,1023,3,0,0,52,-275,4202,190,205,122,118, ANGLE_MODE, GPS_FIX_HOME|GPS_FIX|SMALL_ANGLE, IDLE,1,1
544,52636668,-3,0,-4,0,0,0,-9,1,0,0,0,-1,1000,1.843,1023,3,0,1,49,-248,4198,171,180,138,115, ANGLE_MODE, GPS_FIX_HOME|GPS_FIX|SMALL_ANGLE, IDLE,1,1
552,52640748,1,0,-2,0,0,0,11,0,0,0,0,-1,1000,1.843,1023,-1,0,0,55,-266,4200,117,124,180,166, ANGLE_MODE, GPS_FIX_HOME|GPS_FIX|SMALL_ANGLE, IDLE,1,1
560,52644800,3,0,0,0,0,0,13,-2,0,0,0,-1,1000,1.843,1023,-4,1,0,51,-294,4207,115,128,189,197, ANGLE_MODE, GPS_FIX_HOME|GPS_FIX|SMALL_ANGLE, IDLE,1,1
568,52648862,0,0,-1,0,0,0,-8,0,0,0,0,-1,1000,1.843,1023,1,1,0,41,-290,4207,150,162,120,118, ANGLE_MODE, GPS_FIX_HOME|GPS_FIX|SMALL_ANGLE, IDLE,1,1
576,52652921,-3,0,-3,0,0,0,-15,1,0,0,0,-1,1000,1.843,1023,4,0,1,42,-256,4200,195,205,134,115, ANGLE_MODE, GPS_FIX_HOME|GPS_FIX|SMALL_ANGLE, IDLE,1,1
584,52656984,0,0,-1,0,0,0,6,2,0,0,0,-1,1000,1.843,1023,0,0,0,51,-253,4199,124,118,155,138, ANGLE_MODE, GPS_FIX_HOME|GPS_FIX|SMALL_ANGLE, IDLE,1,1
592,52661062,3,0,-1,0,0,0,14,-2,0,0,0,-1,1000,1.843,1023,-3,0,0,48,-278,4204,115,130,187,192, ANGLE_MODE, GPS_FIX_HOME|GPS_FIX|SMALL_ANGLE, IDLE,1,1
600,52665166,0,0,-2,0,0,0,-2,-2,0,0,0,-1,1000,1.843,1023,-1,1,0,35,-281,4203,119,143,122,124, ANGLE_MODE, GPS_FIX_HOME|GPS_FIX|SMALL_ANGLE, IDLE,1,1
608,52669289,-2,0,-1,0,0,0,-12,1,0,0,0,-1,1000,1.843,1023,2,0,0,40,-254,4195,178,175,126,115, ANGLE_MODE, GPS_FIX_HOME|GPS_FIX|SMALL_ANGLE, IDLE,1,1
616,52673352,0,0,0,0,0,0,1,3,0,0,0,-1,1000,1.843,1023,1,-1,0,50,-253,4197,132,117,137,117, ANGLE_MODE, GPS_FIX_HOME|GPS_FIX|SMALL_ANGLE, IDLE,1,1
624,52677396,1,0,-5,0,0,0,9,-2,0,0,0,-3,1000,1.843,1023,-2,0,0,47,-272,4200,115,141,175,164, ANGLE_MODE, GPS_FIX_HOME|GPS_FIX|SMALL_ANGLE, IDLE,1,1
632,52681720,0,-1,-5,0,0,0,0,-4,0,0,0,-3,1000,1.843,1023,0,1,0,34,-273,4200,116,159,137,136, ANGLE_MODE, GPS_FIX_HOME|GPS_FIX|SMALL_ANGLE, IDLE,1,1
640,52685819,-1,0,-2,0,0,0,-9,2,0,0,0,-3,1000,1.843,1023,2,0,-1,36,-261,4200,164,164,129,115, ANGLE_MODE, GPS_FIX_HOME|GPS_FIX|SMALL_ANGLE, IDLE,1,1
648,52689919,0,1,-1,0,0,0,2,4,0,0,0,-3,1000,1.843,1023,0,-1,-1,46,-264,4205,135,119,153,123, ANGLE_MODE, GPS_FIX_HOME|GPS_FIX|SMALL_ANGLE, IDLE,1,1
656,52693987,0,0,-4,0,0,0,4,-2,0,0,0,-3,1000,1.843,1023,-1,0,0,38,-277,4207,115,139,151,142, ANGLE_MODE, GPS_FIX_HOME|GPS_FIX|SMALL_ANGLE, IDLE,1,1
664,52698163,0,-1,-5,0,0,0,-2,-5,0,0,0,-3,1000,1.843,1023,0,1,0,18,-274,4206,120,168,131,137, ANGLE_MODE, GPS_FIX_HOME|GPS_FIX|SMALL_ANGLE, IDLE,1,1
672,52702261,-1,0,-2,0,0,0,-4,1,0,0,0,-3,1000,1.843,1023,1,0,-1,26,-265,4204,143,144,128,115, ANGLE_MODE, GPS_FIX_HOME|GPS_FIX|SMALL_ANGLE, IDLE,1,1
680,52706337,0,1,-2,0,0,0,2,6,0,0,0,-3,1000,1.843,1023,0,-1,-1,45,-268,4206,144,122,161,119, ANGLE_MODE, GPS_FIX_HOME|GPS_FIX|SMALL_ANGLE, IDLE,1,1
688,52710397,0,0,-6,0,0,0,3,-1,0,0,0,-3,1000,1.843,1023,0,0,1,39,-274,4207,115,142,153,131, ANGLE_MODE, GPS_FIX_HOME|GPS_FIX|SMALL_ANGLE, IDLE,1,1
696,52714483,0,-1,-6,0,0,0,-2,-7,0,0,0,-3,1000,1.843,1023,1,2,1,23,-274,4201,121,184,135,148, ANGLE_MODE, GPS_FIX_HOME|GPS_FIX|SMALL_ANGLE, IDLE,1,1
704,52718527,-1,0,-2,0,0,0,-3,1,0,0,0,-3,1000,1.843,1023,1,0,-1,24,-266,4198,136,144,129,115, ANGLE_MODE, GPS_FIX_HOME|GPS_FIX|SMALL_ANGLE, IDLE,1,1
712,52722581,0,1,-3,0,0,0,2,7,0,0,0,-3,1000,1.843,1023,0,-2,0,46,-265,4196,149,124,173,121, ANGLE_MODE, GPS_FIX_HOME|GPS_FIX|SMALL_ANGLE, IDLE,1,1
720,52726646,0,0,-6,0,0,0,1,0,0,0,0,-3,1000,1.843,1023,0,-1,1,46,-269,4198,116,142,150,122, ANGLE_MODE, GPS_FIX_HOME|GPS_FIX|SMALL_ANGLE, IDLE,1,1
728,52730699,0,-1,-7,0,0,0,-1,-8,0,0,0,-3,1000,1.843,1023,1,2,1,35,-270,4191,120,189,140,151, ANGLE_MODE, GPS_FIX_HOME|GPS_FIX|SMALL_ANGLE, IDLE,1,1
736,52734896,0,0,-2,0,0,0,0,0,0,0,0,-3,1000,1.843,1023,0,1,-1,33,-268,4194,117,132,123,120, ANGLE_MODE, GPS_FIX_HOME|GPS_FIX|SMALL_ANGLE, IDLE,1,1
744,52738940,0,1,-1,0,0,0,0,7,0,0,0,-3,1000,1.843,1023,1,-1,-1,56,-265,4195,152,123,158,115, ANGLE_MODE, GPS_FIX_HOME|GPS_FIX|SMALL_ANGLE, IDLE,1,1
752,52743046,0,1,-2,0,0,0,-1,2,0,0,0,-1,1000,1.843,1023,1,-1,0,57,-263,4198,137,129,136,115, ANGLE_MODE, GPS_FIX_HOME|GPS_FIX|SMALL_ANGLE, IDLE,1,1
760,52747104,0,-1,-3,0,0,0,0,-8,0,0,0,-1,1000,1.843,1023,0,2,1,44,-263,4193,116,170,129,156, ANGLE_MODE, GPS_FIX_HOME|GPS_FIX|SMALL_ANGLE, IDLE,1,1
768,52751194,0,-1,0,0,0,0,3,-3,0,0,0,-1,1000,1.843,1023,0,2,0,33,-269,4198,116,140,132,152, ANGLE_MODE, GPS_FIX_HOME|GPS_FIX|SMALL_ANGLE, IDLE,1,1
776,52755252,0,1,-1,0,0,0,0,7,0,0,0,-1,1000,1.843,1023,0,-1,0,53,-267,4197,153,122,158,116, ANGLE_MODE, GPS_FIX_HOME|GPS_FIX|SMALL_ANGLE, IDLE,1,1
784,52759306,-2,1,-4,0,0,0,-5,4,0,0,0,-1,1000,1.843,1023,2,-1,1,60,-255,4198,165,157,151,116, ANGLE_MODE, GPS_FIX_HOME|GPS_FIX|SMALL_ANGLE, IDLE,1,1
792,52763383,-1,-1,-5,0,0,0,0,-7,0,0,0,-1,1000,1.843,1023,1,1,1,48,-249,4196,119,177,137,148, ANGLE_MODE, GPS_FIX_HOME|GPS_FIX|SMALL_ANGLE, IDLE,1,1
800,52767440,1,-1,-2,0,0,0,8,-4,0,0,0,-1,1000,1.843,1023,-2,1,0,37,-263,4202,116,144,158,173, ANGLE_MODE, GPS_FIX_HOME|GPS_FIX|SMALL_ANGLE, IDLE,1,1
808,52771506,1,0,-1,0,0,0,2,5,0,0,0,-1,1000,1.843,1023,-1,0,0,49,-270,4204,136,119,157,130, ANGLE_MODE, GPS_FIX_HOME|GPS_FIX|SMALL_ANGLE, IDLE,1,1
816,52775863,-2,1,-4,0,0,0,-9,5,0,0,0,-1,1000,1.843,1023,2,-1,1,59,-249,4203,180,172,151,116, ANGLE_MODE, GPS_FIX_HOME|GPS_FIX|SMALL_ANGLE, IDLE,1,1
824,52779926,-2,0,-4,0,0,0,-4,-3,0,0,0,-1,1000,1.843,1023,2,0,1,49,-233,4201,137,173,128,125, ANGLE_MODE, GPS_FIX_HOME|GPS_FIX|SMALL_ANGLE, IDLE,1,1
832,52784012,2,-1,0,0,0,0,11,-4,0,0,0,-1,1000,1.843,1023,-2,1,0,43,-269,4202,116,140,173,192, ANGLE_MODE, GPS_FIX_HOME|GPS_FIX|SMALL_ANGLE, IDLE,1,1
840,52788081,3,0,-1,0,0,0,8,2,0,0,0,-1,1000,1.843,1023,-3,0,0,52,-292,4203,122,120,173,158, ANGLE_MODE, GPS_FIX_HOME|GPS_FIX|SMALL_ANGLE, IDLE,1,1
848,52792155,-1,0,-6,0,0,0,-11,4,0,0,0,-1,1000,1.843,1023,2,-1,2,58,-281,4199,179,183,151,116, ANGLE_MODE, GPS_FIX_HOME|GPS_FIX|SMALL_ANGLE, IDLE,1,1
856,52796220,-2,0,4,0,0,0,-10,-1,0,0,0,5,1000,1.843,1023,3,0,1,53,-259,4192,186,173,116,138, ANGLE_MODE, GPS_FIX_HOME|GPS_FIX|SMALL_ANGLE, IDLE,1,1
864,52800366,1,0,7,0,0,0,10,-3,0,0,0,5,1000,1.843,1023,-2,1,0,51,-275,4195,137,125,154,200, ANGLE_MODE, GPS_FIX_HOME|GPS_FIX|SMALL_ANGLE, IDLE,1,1
872,52804426,4,0,2,0,0,0,13,0,0,0,0,5,1000,1.843,1023,-4,0,2,54,-304,4200,127,117,189,201, ANGLE_MODE, GPS_FIX_HOME|GPS_FIX|SMALL_ANGLE, IDLE,1,1
880,52808490,0,0,-2,0,0,0,-7,2,0,0,0,7,1000,1.843,1023,0,0,5,60,-299,4199,152,152,133,116, ANGLE_MODE, GPS_FIX_HOME|GPS_FIX|SMALL_ANGLE, IDLE,1,1
888,52812572,-3,0,-1,0,0,0,-17,0,0,0,0,7,1000,1.843,1023,4,0,4,61,-266,4191,202,203,122,116, ANGLE_MODE, GPS_FIX_HOME|GPS_FIX|SMALL_ANGLE, IDLE,1,1
896,52816679,0,0,6,0,0,0,5,-2,0,0,0,7,1000,1.843,1023,0,1,2,60,-259,4192,137,122,131,169, ANGLE_MODE, GPS_FIX_HOME|GPS_FIX|SMALL_ANGLE, IDLE,1,1
904,52820735,3,0,6,0,0,0,16,-1,0,0,0,7,1000,1.843,1023,-4,1,2,61,-281,4200,138,121,193,229, ANGLE_MODE, GPS_FIX_HOME|GPS_FIX|SMALL_ANGLE, IDLE,1,1
912,52824818,1,0,-1,0,0,0,-1,0,0,0,0,7,1000,1.843,1023,-1,0,4,62,-288,4205,119,123,122,116, ANGLE_MODE, GPS_FIX_HOME|GPS_FIX|SMALL_ANGLE, IDLE,1,1
920,52828887,-2,0,0,0,0,0,-13,2,0,0,0,7,1000,1.843,1023,2,0,3,61,-262,4199,191,178,124,118, ANGLE_MODE, GPS_FIX_HOME|GPS_FIX|SMALL_ANGLE, IDLE,1,1
928,52832956,0,0,9,0,0,0,0,0,0,0,0,7,1000,1.843,1023,0,0,1,58,-250,4199,153,117,118,155, ANGLE_MODE, GPS_FIX_HOME|GPS_FIX|SMALL_ANGLE, IDLE,1,1
936,52837013,2,0,8,0,0,0,11,-2,0,0,0,7,1000,1.843,1023,-3,1,1,57,-263,4204,146,123,170,219, ANGLE_MODE, GPS_FIX_HOME|GPS_FIX|SMALL_ANGLE, IDLE,1,1
944,52841069,1,0,4,0,0,0,0,0,0,0,0,7,1000,1.843,1023,-1,0,2,52,-271,4212,134,116,125,138, ANGLE_MODE, GPS_FIX_HOME|GPS_FIX|SMALL_ANGLE, IDLE,1,1
952,52845118,-1,0,6,0,0,0,-11,2,0,0,0,7,1000,1.843,1023,2,-1,2,50,-255,4208,202,163,123,134, ANGLE_MODE, GPS_FIX_HOME|GPS_FIX|SMALL_ANGLE, IDLE,1,1
960,52849209,0,0,13,0,0,0,1,-1,0,0,0,7,1000,1.843,1023,0,0,-1,45,-251,4207,167,120,118,175, ANGLE_MODE, GPS_FIX_HOME|GPS_FIX|SMALL_ANGLE, IDLE,1,1
968,52853277,1,0,10,0,0,0,8,-2,0,0,0,7,1000,1.843,1023,-2,1,0,45,-262,4212,155,123,147,205, ANGLE_MODE, GPS_FIX_HOME|GPS_FIX|SMALL_ANGLE, IDLE,1,1
976,52857331,0,0,3,0,0,0,-2,1,0,0,0,5,1000,1.843,1023,0,0,1,43,-268,4212,146,123,120,128, ANGLE_MODE, GPS_FIX_HOME|GPS_FIX|SMALL_ANGLE, IDLE,1,1
984,52861429,-1,0,7,0,0,0,-6,2,0,0,0,5,1000,1.852,1023,1,0,0,42,-259,4204,183,144,121,141, ANGLE_MODE, GPS_FIX_HOME|GPS_FIX|SMALL_ANGLE, IDLE,1,1
992,52865584,0,0,11,0,0,0,2,-2,0,0,0,5,1000,1.852,1023,0,1,-1,37,-262,4204,159,123,122,183, ANGLE_MODE, GPS_FIX_HOME|GPS_FIX|SMALL_ANGLE, IDLE,1,1
1000,52869940,0,0,11,0,0,0,4,-1,0,0,0,5,1000,1.852,1023,-1,0,-1,39,-274,4206,159,120,136,189, ANGLE_MODE, GPS_FIX_HOME|GPS_FIX|SMALL_ANGLE, IDLE,1,1
1008,52874012,0,0,8,0,0,0,-3,3,0,0,0,5,1000,1.852,1023,0,-1,0,40,-279,4205,177,125,125,143, ANGLE_MODE, GPS_FIX_HOME|GPS_FIX|SMALL_ANGLE, IDLE,1,1
1016,52878076,-1,0,8,0,0,0,-6,0,0,0,0,5,1000,1.852,1023,2,0,0,39,-270,4198,183,148,117,150, ANGLE_MODE, GPS_FIX_HOME|GPS_FIX|SMALL_ANGLE, IDLE,1,1
1024,52882162,0,0,7,0,0,0,2,-3,0,0,0,4,1000,1.843,1023,0,1,0,27,-262,4200,141,128,120,169, ANGLE_MODE, GPS_FIX_HOME|GPS_FIX|SMALL_ANGLE, IDLE,1,1
1032,52886240,0,0,7,0,0,0,4,1,0,0,0,4,1000,1.843,1023,-1,0,0,23,-260,4204,150,115,140,162, ANGLE_MODE, GPS_FIX_HOME|GPS_FIX|SMALL_ANGLE, IDLE,1,1
1040,52890349,0,0,8,0,0,0,-1,3,0,0,0,4,1000,1.843,1023,0,-1,-1,18,-255,4204,171,121,127,144, ANGLE_MODE, GPS_FIX_HOME|GPS_FIX|SMALL_ANGLE, IDLE,1,1
1048,52894419,-1,0,8,0,0,0,-4,-3,0,0,0,4,1000,1.843,1023,1,0,-1,9,-237,4203,167,149,115,155, ANGLE_MODE, GPS_FIX_HOME|GPS_FIX|SMALL_ANGLE, IDLE,1,1
1056,52898485,-1,0,5,0,0,0,0,-2,0,0,0,4,1000,1.843,1023,1,1,0,5,-229,4206,141,134,115,145, ANGLE_MODE, GPS_FIX_HOME|GPS_FIX|SMALL_ANGLE, IDLE,1,1
1064,52902564,0,0,6,0,0,0,4,3,0,0,0,3,1000,1.843,1023,0,-1,-1,17,-241,4208,149,115,139,150, ANGLE_MODE, GPS_FIX_HOME|GPS_FIX|SMALL_ANGLE, IDLE,1,1
1072,52906639,0,0,9,0,0,0,4,2,0,0,0,3,1000,1.843,1023,-1,-1,-2,24,-248,4211,162,115,141,168, ANGLE_MODE, GPS_FIX_HOME|GPS_FIX|SMALL_ANGLE, IDLE,1,1
1080,52910718,-1,0,7,0,0,0,-4,-4,0,0,0,3,1000,1.843,1023,1,1,-1,20,-242,4209,158,152,115,156, ANGLE_MODE, GPS_FIX_HOME|GPS_FIX|SMALL_ANGLE, IDLE,1,1
1088,52914787,-2,0,3,0,0,0,-5,-1,0,0,0,3,1000,1.843,1023,2,0,1,23,-228,4209,156,150,115,131, ANGLE_MODE, GPS_FIX_HOME|GPS_FIX|SMALL_ANGLE, IDLE,1,1
1096,52918851,0,0,6,0,0,0,4,4,0,0,0,3,1000,1.843,1023,-1,-1,-1,35,-240,4208,155,115,146,153, ANGLE_MODE, GPS_FIX_HOME|GPS_FIX|SMALL_ANGLE, IDLE,1,1
1104,52922922,1,0,10,0,0,0,9,0,0,0,0,3,1000,1.852,1023,-2,0,-2,41,-259,4210,159,115,159,202, ANGLE_MODE, GPS_FIX_HOME|GPS_FIX|SMALL_ANGLE, IDLE,1,1
1112,52926997,0,0,7,0,0,0,-3,-3,0,0,0,3,1000,1.852,1023,0,1,-1,38,-256,4210,156,141,115,156, ANGLE_MODE, GPS_FIX_HOME|GPS_FIX|SMALL_ANGLE, IDLE,1,1
1120,52931062,-2,0,1,0,0,0,-8,0,0,0,0,3,1000,1.852,1023,2,0,1,39,-237,4207,169,159,117,120, ANGLE_MODE, GPS_FIX_HOME|GPS_FIX|SMALL_ANGLE, IDLE,1,1
1128,52935133,0,0,4,0,0,0,1,2,0,0,0,3,1000,1.852,1023,0,0,0,48,-237,4203,145,115,131,136, ANGLE_MODE, GPS_FIX_HOME|GPS_FIX|SMALL_ANGLE, IDLE,1,1
1136,52939190,2,0,10,0,0,0,11,-1,0,0,0,3,1000,1.852,1023,-3,0,-2,46,-254,4205,153,119,168,216, ANGLE_MODE, GPS_FIX_HOME|GPS_FIX|SMALL_ANGLE, IDLE,1,1
1144,52943242,0,0,6,0,0,0,0,-2,0,0,0,3,1000,1.843,1023,-1,1,-1,45,-255,4206,144,130,115,157, ANGLE_MODE, GPS_FIX_HOME|GPS_FIX|SMALL_ANGLE, IDLE,1,1
1152,52947303,-1,0,0,0,0,0,-10,2,0,0,0,3,1000,1.843,1023,1,0,2,50,-240,4205,173,164,125,115, ANGLE_MODE, GPS_FIX_HOME|GPS_FIX|SMALL_ANGLE, IDLE,1,1
1160,52951472,0,0,2,0,0,0,0,2,0,0,0,3,1000,1.843,1023,0,0,1,53,-237,4200,135,116,124,124, ANGLE_MODE, GPS_FIX_HOME|GPS_FIX|SMALL_ANGLE, IDLE,1,1
1168,52955570,1,0,8,0,0,0,8,-3,0,0,0,3,1000,1.843,1023,-2,1,-1,44,-237,4193,143,123,146,197, ANGLE_MODE, GPS_FIX_HOME|GPS_FIX|SMALL_ANGLE, IDLE,1,1
1176,52959635,0,0,7,0,0,0,1,0,0,0,0,3,1000,1.843,1023,-1,0,-1,47,-230,4188,143,118,123,157, ANGLE_MODE, GPS_FIX_HOME|GPS_FIX|SMALL_ANGLE, IDLE,1,1
1184,52963961,-1,0,2,0,0,0,-8,2,0,0,0,3,1000,1.843,1023,1,0,1,47,-217,4182,170,148,123,120, ANGLE_MODE, GPS_FIX_HOME|GPS_FIX|SMALL_ANGLE, IDLE,1,1
1192,52968050,0,0,2,0,0,0,0,0,0,0,0,3,1000,1.843,1023,0,0,1,36,-219,4180,130,124,115,128, ANGLE_MODE, GPS_FIX_HOME|GPS_FIX|SMALL_ANGLE, IDLE,1,1
1200,52972118,0,0,6,0,0,0,3,-2,0,0,0,3,1000,1.843,1023,-1,1,-1,37,-227,4180,135,121,126,163, ANGLE_MODE, GPS_FIX_HOME|GPS_FIX|SMALL_ANGLE, IDLE,1,1
1208,52976189,0,0,2,0,0,0,1,2,0,0,0,1,1000,1.843,1023,-1,-1,0,45,-238,4182,135,115,134,130, ANGLE_MODE, GPS_FIX_HOME|GPS_FIX|SMALL_ANGLE, IDLE,1,1
1216,52980253,0,0,0,0,0,0,-1,1,0,0,0,1,1000,1.843,1023,0,0,0,49,-245,4184,130,121,121,117, ANGLE_MODE, GPS_FIX_HOME|GPS_FIX|SMALL_ANGLE, IDLE,1,1
1224,52984338,-1,-1,1,0,0,0,-4,-4,0,0,0,1,1000,1.852,1023,1,1,0,35,-241,4185,141,158,115,141, ANGLE_MODE, GPS_FIX_HOME|GPS_FIX|SMALL_ANGLE, IDLE,1,1
1232,52988397,-1,0,3,0,0,0,-1,0,0,0,0,1,1000,1.852,1023,1,1,-1,37,-241,4187,139,130,115,129, ANGLE_MODE, GPS_FIX_HOME|GPS_FIX|SMALL_ANGLE, IDLE,1,1
1240,52992457,0,0,3,0,0,0,3,4,0,0,0,1,1000,1.852,1023,-1,-1,-1,44,-252,4194,144,115,146,136, ANGLE_MODE, GPS_FIX_HOME|GPS_FIX|SMALL_ANGLE, IDLE,1,1
1248,52996557,0,0,2,0,0,0,4,0,0,0,0,1,1000,1.852,1023,-1,0,0,49,-270,4197,130,115,139,145, ANGLE_MODE, GPS_FIX_HOME|GPS_FIX|SMALL_ANGLE, IDLE,1,1
1256,53000617,-1,0,2,0,0,0,-3,-4,0,0,0,1,1000,1.843,1023,0,1,0,36,-271,4199,139,150,115,141, ANGLE_MODE, GPS_FIX_HOME|GPS_FIX|SMALL_ANGLE, IDLE,1,1
1264,53004680,-2,0,0,0,0,0,-6,0,0,0,0,1,1000,1.843,1023,2,0,1,33,-257,4197,153,156,115,119, ANGLE_MODE, GPS_FIX_HOME|GPS_FIX|SMALL_ANGLE, IDLE,1,1
1272,53008759,-1,1,-1,0,0,0,1,4,0,0,0,0,1000,1.843,1023,1,-1,1,46,-257,4199,139,123,148,116, ANGLE_MODE, GPS_FIX_HOME|GPS_FIX|SMALL_ANGLE, IDLE,1,1
1280,53012822,1,0,1,0,0,0,9,0,0,0,0,0,1000,1.843,1023,-2,0,0,51,-279,4204,125,115,165,164, ANGLE_MODE, GPS_FIX_HOME|GPS_FIX|SMALL_ANGLE, IDLE,1,1
1288,53016881,0,0,2,0,0,0,1,-5,0,0,0,0,1000,1.843,1023,-1,1,-1,42,-285,4207,121,132,121,153, ANGLE_MODE, GPS_FIX_HOME|GPS_FIX|SMALL_ANGLE, IDLE,1,1
1296,53020944,-3,0,1,0,0,0,-12,0,0,0,1,0,1000,1.843,1023,3,1,0,40,-262,4204,182,181,115,123, ANGLE_MODE, GPS_FIX_HOME|GPS_FIX|SMALL_ANGLE, IDLE,1,1
1304,53025025,-2,3,-1,0,0,0,-2,18,0,0,5,0,1000,1.843,1023,2,-1,0,50,-243,4200,222,136,208,115, ANGLE_MODE, GPS_FIX_HOME|GPS_FIX|SMALL_ANGLE, IDLE,1,1
1312,53029089,1,4,1,0,0,0,11,4,0,0,7,0,1009,1.843,1023,-2,0,0,56,-264,4205,156,115,200,168, ANGLE_MODE, GPS_FIX_HOME|GPS_FIX|SMALL_ANGLE, IDLE,1,1
1320,53033188,2,4,5,0,0,0,8,-1,0,0,9,0,1009,1.843,1023,-3,1,-2,47,-282,4210,146,115,167,175, ANGLE_MODE, GPS_FIX_HOME|GPS_FIX|SMALL_ANGLE, IDLE,1,1
1328,53037248,-1,7,5,0,0,0,-10,8,0,0,13,0,1009,1.843,1023,1,1,-2,44,-272,4209,244,155,170,127, ANGLE_MODE, GPS_FIX_HOME|GPS_FIX|SMALL_ANGLE, IDLE,1,1
1336,53041303,-3,10,-2,0,1,0,-10,5,0,0,16,0,1010,1.852,1023,3,-1,1,48,-239,4206,239,177,189,115, ANGLE_MODE, GPS_FIX_HOME|GPS_FIX|SMALL_ANGLE, IDLE,1,1
1344,53045376,1,10,-5,0,1,0,9,1,0,0,16,0,1010,1.852,1023,-1,0,2,56,-246,4206,159,127,225,147, ANGLE_MODE, GPS_FIX_HOME|GPS_FIX|SMALL_ANGLE, IDLE,1,1
1352,53049438,3,11,0,0,2,0,12,6,0,0,19,0,1017,1.852,1023,-4,1,0,44,-274,4214,195,115,257,180, ANGLE_MODE, GPS_FIX_HOME|GPS_FIX|SMALL_ANGLE, IDLE,1,1
1360,53053507,0,14,4,0,3,0,-4,10,0,0,24,0,1017,1.852,1023,-1,1,-2,45,-274,4212,253,123,218,129, ANGLE_MODE, GPS_FIX_HOME|GPS_FIX|SMALL_ANGLE, IDLE,1,1
1368,53057825,-1,15,0,0,3,0,-11,2,0,0,25,0,1017,1.852,1023,2,0,0,44,-245,4209,258,169,204,116, ANGLE_MODE, GPS_FIX_HOME|GPS_FIX|SMALL_ANGLE, IDLE,1,1
1376,53061901,0,15,-1,0,4,0,0,0,0,0,25,0,1026,1.843,1023,0,0,0,47,-246,4211,197,119,203,116, ANGLE_MODE, GPS_FIX_HOME|GPS_FIX|SMALL_ANGLE, IDLE,1,1
1384,53065972,3,15,1,0,5,0,12,0,0,0,25,0,1026,1.843,1023,-3,0,-1,50,-272,4211,206,115,258,181, ANGLE_MODE, GPS_FIX_HOME|GPS_FIX|SMALL_ANGLE, IDLE,1,1
1392,53070025,3,17,0,0,6,0,5,9,0,0,30,1,1037,1.843,1023,-3,1,0,46,-276,4212,251,115,282,152, ANGLE_MODE, GPS_FIX_HOME|GPS_FIX|SMALL_ANGLE, IDLE,1,1
1400,53074131,0,21,0,0,7,0,-11,12,0,0,35,1,1037,1.843,1023,1,1,0,50,-258,4210,325,160,277,117, ANGLE_MODE, GPS_FIX_HOME|GPS_FIX|SMALL_ANGLE, IDLE,1,1
1408,53078226,-1,22,2,0,8,0,-7,4,0,0,36,1,1037,1.843,1023,1,0,0,52,-243,4203,300,144,254,121, ANGLE_MODE, GPS_FIX_HOME|GPS_FIX|SMALL_ANGLE, IDLE,1,1
1416,53082312,3,21,0,0,9,0,11,-1,0,0,36,3,1047,1.843,1023,-3,1,2,60,-255,4201,235,115,291,174, ANGLE_MODE, GPS_FIX_HOME|GPS_FIX|SMALL_ANGLE, IDLE,1,1
1424,53086371,4,20,1,0,10,0,9,-5,0,0,36,3,1047,1.843,1023,-4,3,1,54,-275,4213,221,115,269,175, ANGLE_MODE, GPS_FIX_HOME|GPS_FIX|SMALL_ANGLE, IDLE,1,1
1432,53090425,1,22,0,0,11,0,-7,2,0,0,36,3,1054,1.843,1023,-1,1,2,61,-269,4207,284,141,260,115, ANGLE_MODE, GPS_FIX_HOME|GPS_FIX|SMALL_ANGLE, IDLE,1,1
1440,53094501,0,22,-3,0,12,0,-7,2,0,0,36,3,1054,1.843,1023,0,1,3,68,-246,4199,288,152,271,115, ANGLE_MODE, GPS_FIX_HOME|GPS_FIX|SMALL_ANGLE, IDLE,1,1
1448,53098554,0,21,1,0,13,0,0,-3,0,0,36,3,1054,1.843,1023,0,2,1,71,-248,4203,244,115,243,123, ANGLE_MODE, GPS_FIX_HOME|GPS_FIX|SMALL_ANGLE, IDLE,1,1
1456,53102620,3,20,3,0,14,0,9,0,0,0,37,3,1063,1.843,1023,-4,3,0,70,-267,4206,261,115,300,177, ANGLE_MODE, GPS_FIX_HOME|GPS_FIX|SMALL_ANGLE, IDLE,1,1
1464,53106697,3,21,0,0,15,0,5,0,0,0,37,3,1063,1.843,1023,-3,3,1,67,-273,4205,264,115,298,155, ANGLE_MODE, GPS_FIX_HOME|GPS_FIX|SMALL_ANGLE, IDLE,1,1
1472,53110770,0,22,0,0,16,0,-12,3,0,0,38,3,1073,1.843,1023,1,2,2,79,-263,4202,336,164,286,116, ANGLE_MODE, GPS_FIX_HOME|GPS_FIX|SMALL_ANGLE, IDLE,1,1
1480,53114889,1,21,0,0,17,0,0,-2,0,0,38,3,1073,1.843,1023,-1,3,1,72,-254,4199,264,115,271,127, ANGLE_MODE, GPS_FIX_HOME|GPS_FIX|SMALL_ANGLE, IDLE,1,1
1488,53118938,2,20,1,1,18,0,7,-4,0,0,38,3,1073,1.843,1023,-2,4,1,68,-262,4205,260,115,299,167, ANGLE_MODE, GPS_FIX_HOME|GPS_FIX|SMALL_ANGLE, IDLE,1,1
1496,53123040,3,20,0,1,19,0,0,0,0,0,38,3,1086,1.843,1023,-3,4,2,79,-272,4207,280,115,296,131, ANGLE_MODE, GPS_FIX_HOME|GPS_FIX|SMALL_ANGLE, IDLE,1,1
1504,53127103,3,20,-1,1,20,0,2,0,0,0,38,3,1086,1.843,1023,-3,4,2,80,-264,4209,274,118,307,140, ANGLE_MODE, GPS_FIX_HOME|GPS_FIX|SMALL_ANGLE, IDLE,1,1
1512,53131147,0,21,0,1,21,0,-8,3,0,0,40,3,1093,1.843,1023,0,4,2,99,-259,4212,325,138,301,116, ANGLE_MODE, GPS_FIX_HOME|GPS_FIX|SMALL_ANGLE, IDLE,1,1
1520,53135192,3,19,3,1,22,0,4,-6,0,0,40,3,1102,1.843,1023,-3,6,1,93,-257,4214,281,124,305,175, ANGLE_MODE, GPS_FIX_HOME|GPS_FIX|SMALL_ANGLE, IDLE,1,1
1528,53139252,4,19,3,1,23,0,7,-3,0,0,40,3,1102,1.843,1023,-3,6,1,92,-261,4222,284,115,321,174, ANGLE_MODE, GPS_FIX_HOME|GPS_FIX|SMALL_ANGLE, IDLE,1,1
1536,53143315,3,19,0,1,24,0,-4,2,0,0,40,3,1102,1.834,1023,-3,6,2,102,-263,4226,311,128,316,129, ANGLE_MODE, GPS_FIX_HOME|GPS_FIX|SMALL_ANGLE, IDLE,1,1
1544,53147633,2,19,0,2,25,0,-1,-2,0,0,41,3,1113,1.834,1023,-2,7,1,112,-254,4220,301,127,312,145, ANGLE_MODE, GPS_FIX_HOME|GPS_FIX|SMALL_ANGLE, IDLE,1,1
1552,53151696,2,17,1,2,26,0,-3,-2,0,0,41,3,1113,1.834,1023,-1,8,1,114,-254,4224,330,153,326,165, ANGLE_MODE, GPS_FIX_HOME|GPS_FIX|SMALL_ANGLE, IDLE,1,1
1560,53155782,3,16,2,2,27,0,3,-7,0,0,41,3,1113,1.834,1023,-3,10,1,114,-260,4234,303,149,328,194, ANGLE_MODE, GPS_FIX_HOME|GPS_FIX|SMALL_ANGLE, IDLE,1,1
1568,53159835,3,16,1,2,28,0,2,0,0,1,41,3,1113,1.834,1023,-3,10,1,134,-269,4237,321,132,346,175, ANGLE_MODE, GPS_FIX_HOME|GPS_FIX|SMALL_ANGLE, IDLE,1,1
1576,53163888,3,16,1,2,29,0,0,0,0,1,42,3,1113,1.826,1023,-2,10,1,136,-269,4238,329,136,341,168, ANGLE_MODE, GPS_FIX_HOME|GPS_FIX|SMALL_ANGLE, IDLE,1,1
1584,53167946,2,15,0,2,29,0,-4,-1,0,1,42,3,1124,1.826,1023,-1,11,1,150,-277,4232,355,175,351,182, ANGLE_MODE, GPS_FIX_HOME|GPS_FIX|SMALL_ANGLE, IDLE,1,1
1592,53172005,2,13,-1,2,30,0,0,-7,0,1,42,3,1124,1.826,1023,-2,14,2,144,-274,4240,326,182,352,204, ANGLE_MODE, GPS_FIX_HOME|GPS_FIX|SMALL_ANGLE, IDLE,1,1
1600,53176082,1,13,1,3,31,0,-1,-1,0,1,43,3,1124,1.826,1023,-1,14,1,165,-285,4245,349,168,356,190, ANGLE_MODE, GPS_FIX_HOME|GPS_FIX|SMALL_ANGLE, IDLE,1,1
1608,53180152,3,13,0,3,31,0,3,1,0,1,44,3,1124,1.826,1023,-3,15,1,164,-292,4252,342,151,375,196, ANGLE_MODE, GPS_FIX_HOME|GPS_FIX|SMALL_ANGLE, IDLE,1,1
1616,53184219,2,11,0,3,32,0,0,-4,0,1,44,3,1133,1.843,1023,-1,17,2,184,-295,4246,354,194,371,218, ANGLE_MODE, GPS_FIX_HOME|GPS_FIX|SMALL_ANGLE, IDLE,1,1
1624,53188275,0,8,-3,3,32,0,-7,-9,0,1,44,3,1141,1.843,1023,0,20,3,172,-292,4256,364,249,365,223, ANGLE_MODE, GPS_FIX_HOME|GPS_FIX|SMALL_ANGLE, IDLE,1,1
1632,53192334,0,7,5,3,33,0,-1,-6,0,1,44,3,1141,1.843,1023,0,21,0,186,-291,4252,376,215,362,249, ANGLE_MODE, GPS_FIX_HOME|GPS_FIX|SMALL_ANGLE, IDLE,1,1
1640,53196385,2,7,20,3,33,0,6,0,0,1,45,12,1150,1.843,1023,-2,22,-1,191,-297,4264,419,167,386,304, ANGLE_MODE, GPS_FIX_HOME|GPS_FIX|SMALL_ANGLE, IDLE,1,1
1648,53200540,1,5,6,3,34,0,1,-1,0,1,46,12,1150,1.834,1023,-1,24,4,213,-297,4256,397,214,394,270, ANGLE_MODE, GPS_FIX_HOME|GPS_FIX|SMALL_ANGLE, IDLE,1,1
1656,53204601,0,3,-9,3,34,0,-5,-9,0,1,46,12,1160,1.834,1023,0,26,10,209,-305,4265,381,303,410,262, ANGLE_MODE, GPS_FIX_HOME|GPS_FIX|SMALL_ANGLE, IDLE,1,1
1664,53208685,2,1,5,3,34,0,2,-5,0,1,46,13,1160,1.834,1023,-2,28,5,227,-321,4263,398,248,405,306, ANGLE_MODE, GPS_FIX_HOME|GPS_FIX|SMALL_ANGLE, IDLE,1,1
1672,53212764,4,0,9,3,34,0,8,-8,0,1,46,13,1160,1.834,1023,-4,30,4,221,-325,4277,377,233,404,342, ANGLE_MODE, GPS_FIX_HOME|GPS_FIX|SMALL_ANGLE, IDLE,1,1
1680,53216830,0,-2,0,3,34,0,-9,-4,0,1,46,13,1167,1.834,1023,1,32,7,246,-308,4272,423,307,393,290, ANGLE_MODE, GPS_FIX_HOME|GPS_FIX|SMALL_ANGLE, IDLE,1,1
1688,53220885,0,-2,5,3,34,1,-6,-6,0,1,46,13,1167,1.834,1023,1,33,5,231,-321,4278,423,298,384,309, ANGLE_MODE, GPS_FIX_HOME|GPS_FIX|SMALL_ANGLE, IDLE,1,1
1696,53224954,2,-5,-1,4,34,1,7,-5,0,1,47,13,1168,1.834,1023,-2,36,8,265,-311,4264,372,284,430,335, ANGLE_MODE, GPS_FIX_HOME|GPS_FIX|SMALL_ANGLE, IDLE,1,1
1704,53229036,0,-6,3,4,33,1,0,-4,0,0,47,13,1176,1.834,1023,0,36,6,240,-307,4289,417,306,419,344, ANGLE_MODE, GPS_FIX_HOME|GPS_FIX|SMALL_ANGLE, IDLE,1,1
1712,53233119,1,-10,-1,4,33,1,-2,-12,0,0,47,13,1176,1.834,1023,-1,41,8,200,-333,4304,386,345,400,355, ANGLE_MODE, GPS_FIX_HOME|GPS_FIX|SMALL_ANGLE, IDLE,1,1
1720,53237175,1,-9,-1,4,32,1,3,0,0,0,47,13,1176,1.834,1023,-1,40,8,176,-328,4330,397,309,435,345, ANGLE_MODE, GPS_FIX_HOME|GPS_FIX|SMALL_ANGLE, IDLE,1,1
1728,53241483,0,-13,3,4,32,1,-1,-8,0,0,47,14,1186,1.834,1023,0,44,6,140,-345,4340,415,357,409,387, ANGLE_MODE, GPS_FIX_HOME|GPS_FIX|SMALL_ANGLE, IDLE,1,1
1736,53245547,0,-15,0,4,31,1,-2,-7,0,0,47,14,1186,1.834,1023,0,46,8,164,-330,4338,409,368,412,379, ANGLE_MODE, GPS_FIX_HOME|GPS_FIX|SMALL_ANGLE, IDLE,1,1
1744,53249618,0,-17,11,4,30,1,3,-7,0,0,47,16,1193,1.834,1023,0,48,5,118,-313,4347,429,351,409,436, ANGLE_MODE, GPS_FIX_HOME|GPS_FIX|SMALL_ANGLE, IDLE,1,1
1752,53253684,0,-19,-1,4,29,1,-3,-8,0,0,47,16,1193,1.834,1023,0,50,9,163,-309,4326,406,401,413,405, ANGLE_MODE, GPS_FIX_HOME|GPS_FIX|SMALL_ANGLE, IDLE,1,1
1760,53257743,0,-19,9,4,28,1,1,0,0,0,47,23,1194,1.834,1023,-1,50,9,122,-292,4340,436,355,416,426, ANGLE_MODE, GPS_FIX_HOME|GPS_FIX|SMALL_ANGLE, IDLE,1,1
1768,53261800,1,-22,6,4,27,1,2,-7,0,0,48,25,1203,1.834,1023,-1,53,11,139,-300,4312,421,399,420,466, ANGLE_MODE, GPS_FIX_HOME|GPS_FIX|SMALL_ANGLE, IDLE,1,1
1776,53265869,0,-22,-3,4,26,1,-5,0,0,0,49,25,1203,1.834,1023,0,54,15,116,-283,4316,431,427,435,413, ANGLE_MODE, GPS_FIX_HOME|GPS_FIX|SMALL_ANGLE, IDLE,1,1
1784,53269918,0,-23,-1,4,25,1,2,2,0,0,52,25,1203,1.834,1023,0,56,14,122,-291,4291,421,402,451,433, ANGLE_MODE, GPS_FIX_HOME|GPS_FIX|SMALL_ANGLE, IDLE,1,1
1792,53273984,0,-21,-2,4,24,1,-1,2,0,0,56,25,1203,1.834,1023,-1,57,15,84,-267,4295,428,412,447,419, ANGLE_MODE, GPS_FIX_HOME|GPS_FIX|SMALL_ANGLE, IDLE,1,1
1800,53278028,0,-23,-1,4,23,1,-2,0,0,0,56,25,1203,1.834,1023,0,60,14,101,-260,4279,423,422,429,432, ANGLE_MODE, GPS_FIX_HOME|GPS_FIX|SMALL_ANGLE, IDLE,1,1
1808,53282137,0,-23,10,4,22,1,3,-12,0,0,56,25,1210,1.834,1023,-1,60,10,40,-247,4278,417,429,406,511, ANGLE_MODE, GPS_FIX_HOME|GPS_FIX|SMALL_ANGLE, IDLE,1,1
1816,53286181,-1,-26,-12,4,20,1,-5,5,0,0,56,25,1210,1.834,1023,2,62,18,72,-225,4251,424,468,457,413, ANGLE_MODE, GPS_FIX_HOME|GPS_FIX|SMALL_ANGLE, IDLE,1,1
1824,53290300,0,-24,9,4,19,1,0,-9,0,0,56,26,1212,1.834,1023,1,60,11,30,-240,4254,431,440,404,504, ANGLE_MODE, GPS_FIX_HOME|GPS_FIX|SMALL_ANGLE, IDLE,1,1
1832,53294374,0,-27,1,4,18,1,3,3,0,0,56,26,1212,1.834,1023,-1,63,14,28,-203,4215,423,433,446,478, ANGLE_MODE, GPS_FIX_HOME|GPS_FIX|SMALL_ANGLE, IDLE,1,1
1840,53298422,-1,-23,-5,4,17,1,-3,2,0,0,56,26,1212,1.834,1023,2,60,16,13,-224,4228,432,463,442,441, ANGLE_MODE, GPS_FIX_HOME|GPS_FIX|SMALL_ANGLE, IDLE,1,1
1848,53302479,0,-25,12,4,15,1,0,-2,0,0,56,27,1221,1.826,1023,1,62,10,-33,-267,4242,458,451,421,522, ANGLE_MODE, GPS_FIX_HOME|GPS_FIX|SMALL_ANGLE, IDLE,1,1
1856,53306539,-3,-24,-11,4,14,1,-7,8,0,0,56,27,1221,1.826,1023,4,61,19,-19,-249,4226,454,499,469,430, ANGLE_MODE, GPS_FIX_HOME|GPS_FIX|SMALL_ANGLE, IDLE,1,1
1864,53310638,-5,-21,13,3,13,1,-4,-4,0,0,56,35,1230,1.826,1023,5,58,14,-76,-263,4252,498,488,415,524, ANGLE_MODE, GPS_FIX_HOME|GPS_FIX|SMALL_ANGLE, IDLE,1,1
1872,53314683,-3,-24,6,3,12,1,0,5,0,0,56,35,1230,1.826,1023,4,60,17,-72,-293,4248,487,476,452,510, ANGLE_MODE, GPS_FIX_HOME|GPS_FIX|SMALL_ANGLE, IDLE,1,1
1880,53318741,-4,-20,-14,3,11,1,0,1,0,0,56,35,1230,1.826,1023,5,57,24,-68,-260,4302,446,525,486,468, ANGLE_MODE, GPS_FIX_HOME|GPS_FIX|SMALL_ANGLE, IDLE,1,1
1888,53322812,-5,-21,1,3,10,1,0,1,0,0,56,35,1230,1.826,1023,5,57,18,-143,-245,4317,474,497,451,503, ANGLE_MODE, GPS_FIX_HOME|GPS_FIX|SMALL_ANGLE, IDLE,1,1
1896,53326857,-2,-20,5,3,9,1,3,1,0,0,56,35,1230,1.826,1023,3,56,17,-95,-257,4350,469,479,456,521, ANGLE_MODE, GPS_FIX_HOME|GPS_FIX|SMALL_ANGLE, IDLE,1,1
1904,53331206,-2,-18,8,2,8,1,2,7,0,0,56,36,1242,1.826,1023,2,55,17,-86,-223,4406,514,486,485,538, ANGLE_MODE, GPS_FIX_HOME|GPS_FIX|SMALL_ANGLE, IDLE,1,1
1912,53335271,-3,-15,0,2,7,1,-1,12,0,0,56,36,1242,1.826,1023,4,51,19,-147,-190,4416,524,496,506,497, ANGLE_MODE, GPS_FIX_HOME|GPS_FIX|SMALL_ANGLE, IDLE,1,1
1920,53339354,-2,-12,-6,2,6,1,4,1,0,0,56,36,1242,1.826,1023,2,49,22,-120,-204,4462,479,514,516,514, ANGLE_MODE, GPS_FIX_HOME|GPS_FIX|SMALL_ANGLE, IDLE,1,1
1928,53343409,-2,-13,-4,2,6,1,-1,9,0,0,56,36,1242,1.817,1023,2,50,21,-59,-202,4525,505,511,513,493, ANGLE_MODE, GPS_FIX_HOME|GPS_FIX|SMALL_ANGLE, IDLE,1,1
1936,53347472,-1,-8,1,2,5,1,1,9,0,0,56,36,1242,1.817,1023,2,45,19,-103,-186,4577,520,482,517,504, ANGLE_MODE, GPS_FIX_HOME|GPS_FIX|SMALL_ANGLE, IDLE,1,1
1944,53351546,0,-6,14,2,5,1,7,0,0,0,56,38,1250,1.817,1023,0,43,16,-120,-188,4628,531,473,506,578, ANGLE_MODE, GPS_FIX_HOME|GPS_FIX|SMALL_ANGLE, IDLE,1,1
1952,53355619,-1,-8,-3,2,4,1,-1,3,0,0,56,38,1250,1.817,1023,1,45,22,-32,-185,4691,521,524,524,518, ANGLE_MODE, GPS_FIX_HOME|GPS_FIX|SMALL_ANGLE, IDLE,1,1
1960,53359684,-1,-5,-4,2,4,2,-4,7,0,0,56,38,1250,1.817,1023,2,42,22,-34,-181,4768,536,524,531,497, ANGLE_MODE, GPS_FIX_HOME|GPS_FIX|SMALL_ANGLE, IDLE,1,1
1968,53363781,0,-3,5,2,4,2,1,6,0,0,56,38,1250,1.826,1023,1,40,19,-92,-185,4825,546,484,528,530, ANGLE_MODE, GPS_FIX_HOME|GPS_FIX|SMALL_ANGLE, IDLE,1,1
1976,53367931,0,-2,0,2,4,2,1,4,0,0,56,38,1250,1.826,1023,0,38,21,-34,-166,4885,531,499,539,520, ANGLE_MODE, GPS_FIX_HOME|GPS_FIX|SMALL_ANGLE, IDLE,1,1
1984,53372024,0,-2,-8,2,4,1,2,0,0,0,56,38,1250,1.826,1023,0,39,23,9,-146,4960,505,520,549,514, ANGLE_MODE, GPS_FIX_HOME|GPS_FIX|SMALL_ANGLE, IDLE,1,1
1992,53376081,-1,0,4,2,4,1,0,7,0,0,56,38,1252,1.826,1023,1,37,19,-21,-151,5027,557,489,538,520, ANGLE_MODE, GPS_FIX_HOME|GPS_FIX|SMALL_ANGLE, IDLE,1,1
2000,53380133,-1,1,13,2,4,2,-4,1,0,0,56,38,1252,1.826,1023,2,35,16,-29,-144,5085,579,487,502,536, ANGLE_MODE, GPS_FIX_HOME|GPS_FIX|SMALL_ANGLE, IDLE,1,1
2008,53384185,0,-1,2,2,4,2,3,-4,0,0,56,38,1260,1.817,1023,-1,38,20,7,-109,5142,535,525,541,567, ANGLE_MODE, GPS_FIX_HOME|GPS_FIX|SMALL_ANGLE, IDLE,1,1
2016,53388250,0,-2,-5,2,4,2,3,-3,0,0,57,38,1268,1.817,1023,-1,39,23,32,-101,5201,535,555,575,568, ANGLE_MODE, GPS_FIX_HOME|GPS_FIX|SMALL_ANGLE, IDLE,1,1
2024,53392313,0,0,5,2,3,2,-2,5,0,0,57,38,1268,1.817,1023,0,36,19,-27,-114,5257,592,524,563,555, ANGLE_MODE, GPS_FIX_HOME|GPS_FIX|SMALL_ANGLE, IDLE,1,1
2032,53396404,0,0,3,2,4,2,0,4,0,0,57,38,1268,1.817,1023,-1,36,20,122,-86,5345,583,524,572,555, ANGLE_MODE, GPS_FIX_HOME|GPS_FIX|SMALL_ANGLE, IDLE,1,1
2040,53400461,0,2,-1,2,4,2,1,2,0,0,57,38,1268,1.817,1023,0,34,21,307,-20,5448,571,530,585,549, ANGLE_MODE, GPS_FIX_HOME|GPS_FIX|SMALL_ANGLE, IDLE,1,1
2048,53404520,0,1,-1,2,4,2,0,1,0,0,57,38,1268,1.817,1023,0,35,21,431,15,5528,571,538,576,549, ANGLE_MODE, GPS_FIX_HOME|GPS_FIX|SMALL_ANGLE, IDLE,1,1
2056,53408597,0,3,1,2,4,2,-2,4,0,0,57,38,1276,1.817,1023,0,33,20,455,15,5585,609,542,591,557, ANGLE_MODE, GPS_FIX_HOME|GPS_FIX|SMALL_ANGLE, IDLE,1,1
2064,53412674,0,4,3,2,4,2,0,0,0,0,57,38,1276,1.817,1023,1,32,19,458,10,5635,602,543,582,572, ANGLE_MODE, GPS_FIX_HOME|GPS_FIX|SMALL_ANGLE, IDLE,1,1
2072,53416997,0,2,4,2,4,2,2,0,0,0,58,38,1276,1.817,1023,-1,35,19,437,11,5690,592,535,589,583, ANGLE_MODE, GPS_FIX_HOME|GPS_FIX|SMALL_ANGLE, IDLE,1,1
2080,53421054,0,3,-3,2,4,2,1,0,0,0,59,38,1276,1.808,1023,-1,35,22,384,30,5752,578,551,603,566, ANGLE_MODE, GPS_FIX_HOME|GPS_FIX|SMALL_ANGLE, IDLE,1,1
2088,53425122,0,2,4,2,5,2,0,-4,0,0,60,39,1277,1.808,1023,0,36,20,311,32,5807,594,554,571,588, ANGLE_MODE, GPS_FIX_HOME|GPS_FIX|SMALL_ANGLE, IDLE,1,1
2096,53429182,0,2,10,2,5,2,-3,-1,0,0,60,39,1277,1.808,1023,1,36,17,268,12,5848,619,542,558,589, ANGLE_MODE, GPS_FIX_HOME|GPS_FIX|SMALL_ANGLE, IDLE,1,1
2104,53433265,-1,3,6,2,5,2,-3,0,0,0,60,39,1277,1.808,1023,1,35,19,248,0,5886,618,546,571,572, ANGLE_MODE, GPS_FIX_HOME|GPS_FIX|SMALL_ANGLE, IDLE,1,1
2112,53437350,0,2,-2,2,5,2,2,2,0,0,60,39,1277,1.808,1023,1,36,22,195,10,5933,590,545,607,565, ANGLE_MODE, GPS_FIX_HOME|GPS_FIX|SMALL_ANGLE, IDLE,1,1
2120,53441403,0,1,2,2,5,2,0,-1,0,0,60,40,1277,1.817,1023,0,37,20,101,10,5979,595,549,583,581, ANGLE_MODE, GPS_FIX_HOME|GPS_FIX|SMALL_ANGLE, IDLE,1,1
2128,53445465,0,0,4,2,5,2,1,-4,0,0,60,40,1277,1.817,1023,0,39,20,1,-6,6003,585,554,572,596, ANGLE_MODE, GPS_FIX_HOME|GPS_FIX|SMALL_ANGLE, IDLE,1,1
2136,53449661,1,-1,0,2,5,2,3,-7,0,0,60,40,1280,1.817,1023,-2,40,22,-12,-31,6011,566,572,586,609, ANGLE_MODE, GPS_FIX_HOME|GPS_FIX|SMALL_ANGLE, IDLE,1,1
2144,53453732,1,0,0,2,5,2,3,-2,0,0,60,40,1280,1.817,1023,-2,40,22,-38,-64,6039,577,560,599,596, ANGLE_MODE, GPS_FIX_HOME|GPS_FIX|SMALL_ANGLE, IDLE,1,1
2152,53457787,2,-2,-1,2,5,2,1,0,0,0,61,40,1281,1.817,1023,-2,42,22,-175,-89,6056,582,564,602,591, ANGLE_MODE, GPS_FIX_HOME|GPS_FIX|SMALL_ANGLE, IDLE,1,1
2160,53461881,1,-2,-6,2,5,2,0,-5,0,0,62,40,1287,1.826,1023,-2,43,24,-423,-94,6073,575,605,606,602, ANGLE_MODE, GPS_FIX_HOME|GPS_FIX|SMALL_ANGLE, IDLE,1,1
2168,53465942,2,-1,-5,2,5,2,2,4,0,0,62,40,1287,1.826,1023,-3,42,24,-646,-97,6081,591,571,634,593, ANGLE_MODE, GPS_FIX_HOME|GPS_FIX|SMALL_ANGLE, IDLE,1,1
2176,53470001,2,-1,-1,2,5,2,-1,2,0,0,62,42,1287,1.826,1023,-2,42,23,-775,-98,6065,603,577,613,595, ANGLE_MODE, GPS_FIX_HOME|GPS_FIX|SMALL_ANGLE, IDLE,1,1
2184,53474055,2,-1,0,2,4,2,-2,-1,0,0,62,42,1287,1.826,1023,-2,42,22,-836,-105,6061,603,580,601,605, ANGLE_MODE, GPS_FIX_HOME|GPS_FIX|SMALL_ANGLE, IDLE,1,1
2192,53478099,0,-1,3,2,4,2,-2,0,0,0,63,42,1287,1.826,1023,-1,42,22,-862,-118,6079,615,575,596,603, ANGLE_MODE, GPS_FIX_HOME|GPS_FIX|SMALL_ANGLE, IDLE,1,1
2200,53482169,-1,-2,-1,2,4,2,-7,-4,0,0,64,42,1289,1.817,1023,2,43,23,-868,-126,6098,613,617,582,593, ANGLE_MODE, GPS_FIX_HOME|GPS_FIX|SMALL_ANGLE, IDLE,1,1
2208,53486235,-1,-2,-6,2,4,2,-1,-3,0,0,64,42,1289,1.817,1023,2,44,25,-895,-116,6135,593,613,604,595, ANGLE_MODE, GPS_FIX_HOME|GPS_FIX|SMALL_ANGLE, IDLE,1,1
2216,53490294,-4,-3,-5,2,4,2,-4,0,0,0,64,42,1289,1.817,1023,4,45,25,-1187,-215,6234,606,621,596,582, ANGLE_MODE, GPS_FIX_HOME|GPS_FIX|SMALL_ANGLE, IDLE,1,1
2224,53494387,-4,-3,-1,2,4,2,-4,4,0,0,64,42,1289,1.817,1023,4,45,23,-1339,-253,6317,627,600,600,578, ANGLE_MODE, GPS_FIX_HOME|GPS_FIX|SMALL_ANGLE, IDLE,1,1
2232,53498448,-4,-3,0,2,4,2,1,-2,0,0,64,42,1289,1.817,1023,4,45,23,-1361,-259,6366,603,601,591,610, ANGLE_MODE, GPS_FIX_HOME|GPS_FIX|SMALL_ANGLE, IDLE,1,1
2240,53502518,-4,-2,3,2,4,2,0,-3,0,0,64,42,1289,1.817,1023,5,44,22,-1301,-274,6398,614,598,582,612, ANGLE_MODE, GPS_FIX_HOME|GPS_FIX|SMALL_ANGLE, IDLE,1,1
2248,53506861,-4,-1,5,1,3,2,-2,2,0,0,64,42,1289,1.817,1023,4,43,21,-1224,-269,6433,634,587,585,598, ANGLE_MODE, GPS_FIX_HOME|GPS_FIX|SMALL_ANGLE, IDLE,1,1
2256,53510946,-6,-4,0,1,3,2,-1,-6,0,0,64,42,1289,1.817,1023,6,46,22,-1073,-272,6448,605,621,569,609, ANGLE_MODE, GPS_FIX_HOME|GPS_FIX|SMALL_ANGLE, IDLE,1,1
2264,53515006,-7,-5,-10,1,3,2,-6,-4,0,0,65,42,1289,1.817,1023,8,47,27,-937,-277,6476,596,658,579,572, ANGLE_MODE, GPS_FIX_HOME|GPS_FIX|SMALL_ANGLE, IDLE,1,1
2272,53519066,-6,-8,-10,0,3,2,-1,-4,0,0,65,42,1289,1.817,1023,7,50,26,-849,-264,6482,580,651,583,590, ANGLE_MODE, GPS_FIX_HOME|GPS_FIX|SMALL_ANGLE, IDLE,1,1
2280,53523125,-6,-7,-1,0,2,2,5,2,0,0,65,42,1289,1.826,1023,6,49,23,-758,-227,6521,599,606,593,607, ANGLE_MODE, GPS_FIX_HOME|GPS_FIX|SMALL_ANGLE, IDLE,1,1
2288,53527205,-6,-8,-11,0,2,2,-2,0,0,0,65,42,1289,1.826,1023,7,50,27,-553,-184,6545,587,651,589,578, ANGLE_MODE, GPS_FIX_HOME|GPS_FIX|SMALL_ANGLE, IDLE,1,1
2296,53531308,-5,-6,-9,0,1,1,2,-1,0,0,65,42,1290,1.826,1023,6,48,26,-311,-163,6575,582,636,599,595, ANGLE_MODE, GPS_FIX_HOME|GPS_FIX|SMALL_ANGLE, IDLE,1,1
2304,53535381,-5,-5,1,0,1,1,0,0,0,0,65,42,1290,1.826,1023,6,47,22,-37,-171,6601,614,617,578,604, ANGLE_MODE, GPS_FIX_HOME|GPS_FIX|SMALL_ANGLE, IDLE,1,1
2312,53539438,-2,-5,5,0,1,1,6,0,0,0,65,42,1290,1.826,1023,3,47,21,155,-200,6624,601,592,586,634, ANGLE_MODE, GPS_FIX_HOME|GPS_FIX|SMALL_ANGLE, IDLE,1,1
2320,53543500,3,-7,-6,0,0,1,18,-6,0,0,64,42,1297,1.817,1023,-3,49,25,302,-211,6644,536,613,644,678, ANGLE_MODE, GPS_FIX_HOME|GPS_FIX|SMALL_ANGLE, IDLE,1,1
2328,53547565,4,-8,-14,0,0,1,7,2,0,0,63,42,1297,1.817,1023,-4,49,28,400,-221,6650,559,631,655,625, ANGLE_MODE, GPS_FIX_HOME|GPS_FIX|SMALL_ANGLE, IDLE,1,1
2336,53551622,5,-7,-13,0,0,1,2,5,0,0,62,42,1300,1.817,1023,-6,47,27,450,-232,6656,578,635,662,619, ANGLE_MODE, GPS_FIX_HOME|GPS_FIX|SMALL_ANGLE, IDLE,1,1
2344,53555675,7,-5,-11,0,0,0,6,8,0,0,61,42,1301,1.817,1023,-7,44,27,552,-248,6656,584,613,679,626, ANGLE_MODE, GPS_FIX_HOME|GPS_FIX|SMALL_ANGLE, IDLE,1,1
2352,53559740,7,-1,-8,0,0,0,2,10,0,0,61,42,1301,1.817,1023,-8,41,26,668,-273,6657,607,604,677,615, ANGLE_MODE, GPS_FIX_HOME|GPS_FIX|SMALL_ANGLE, IDLE,1,1
2360,53563792,6,0,-4,0,0,0,0,5,0,0,61,42,1307,1.808,1023,-7,38,24,753,-304,6670,629,620,672,631, ANGLE_MODE, GPS_FIX_HOME|GPS_FIX|SMALL_ANGLE, IDLE,1,1
2368,53567855,5,0,-2,1,0,0,-4,0,0,0,61,42,1307,1.808,1023,-5,38,24,801,-300,6685,631,636,646,638, ANGLE_MODE, GPS_FIX_HOME|GPS_FIX|SMALL_ANGLE, IDLE,1,1
2376,53571917,4,0,-4,1,0,0,-3,-4,0,0,61,42,1307,1.808,1023,-5,39,24,845,-274,6715,613,651,642,645, ANGLE_MODE, GPS_FIX_HOME|GPS_FIX|SMALL_ANGLE, IDLE,1,1
2384,53575968,6,-2,-11,1,0,0,4,-12,0,0,59,42,1307,1.808,1023,-7,40,27,822,-239,6753,560,665,657,670, ANGLE_MODE, GPS_FIX_HOME|GPS_FIX|SMALL_ANGLE, IDLE,1,1
2392,53580027,5,-4,-11,2,0,0,0,-6,0,0,55,42,1307,1.808,1023,-6,40,27,1234,-339,6774,575,670,652,654, ANGLE_MODE, GPS_FIX_HOME|GPS_FIX|SMALL_ANGLE, IDLE,1,1
2400,53584093,4,-4,-6,2,0,0,-5,0,0,0,53,42,1315,1.817,1023,-5,39,25,1462,-420,6808,628,674,658,656, ANGLE_MODE, GPS_FIX_HOME|GPS_FIX|SMALL_ANGLE, IDLE,1,1
2408,53588150,6,-4,-3,2,0,0,3,6,0,0,52,42,1315,1.817,1023,-7,38,24,1625,-465,6850,625,634,687,670, ANGLE_MODE, GPS_FIX_HOME|GPS_FIX|SMALL_ANGLE, IDLE,1,1
2416,53592209,7,-2,-8,2,-1,0,6,8,0,0,52,42,1316,1.817,1023,-8,36,26,1612,-489,6903,615,631,716,662, ANGLE_MODE, GPS_FIX_HOME|GPS_FIX|SMALL_ANGLE, IDLE,1,1
2424,53596522,6,-1,-4,3,0,0,-2,4,0,0,50,42,1316,1.817,1023,-6,33,24,1577,-501,6966,640,646,683,656, ANGLE_MODE, GPS_FIX_HOME|GPS_FIX|SMALL_ANGLE, IDLE,1,1
2432,53600586,5,-2,-4,3,0,0,-4,-6,0,0,46,42,1316,1.817,1023,-5,32,25,1518,-498,7034,616,677,656,676, ANGLE_MODE, GPS_FIX_HOME|GPS_FIX|SMALL_ANGLE, IDLE,1,1
2440,53604645,5,-1,-7,3,-1,0,0,1,0,0,44,40,1326,1.79,1023,-5,29,24,1447,-486,7110,642,677,708,679, ANGLE_MODE, GPS_FIX_HOME|GPS_FIX|SMALL_ANGLE, IDLE,1,1
2448,53608707,3,0,-3,3,-1,0,-3,-2,0,0,43,40,1326,1.79,1023,-4,28,23,1413,-475,7189,652,684,684,685, ANGLE_MODE, GPS_FIX_HOME|GPS_FIX|SMALL_ANGLE, IDLE,1,1
2456,53612777,1,1,3,4,-1,0,-6,1,0,0,43,40,1326,1.79,1023,-1,26,21,1301,-462,7276,689,670,673,673, ANGLE_MODE, GPS_FIX_HOME|GPS_FIX|SMALL_ANGLE, IDLE,1,1
2464,53616940,0,4,3,4,-1,0,-4,7,0,0,43,40,1326,1.79,1023,0,23,20,1287,-432,7358,705,652,689,660, ANGLE_MODE, GPS_FIX_HOME|GPS_FIX|SMALL_ANGLE, IDLE,1,1
2472,53620989,0,5,0,4,-1,0,0,2,0,0,43,40,1326,1.799,1023,0,22,21,1320,-398,7436,682,654,700,670, ANGLE_MODE, GPS_FIX_HOME|GPS_FIX|SMALL_ANGLE, IDLE,1,1
2480,53625080,0,1,-5,4,0,-1,1,-10,0,0,39,40,1326,1.799,1023,0,23,24,1315,-364,7520,631,697,683,695, ANGLE_MODE, GPS_FIX_HOME|GPS_FIX|SMALL_ANGLE, IDLE,1,1
2488,53629182,0,-2,-10,4,-1,-1,0,-8,0,0,35,39,1326,1.799,1023,0,25,25,1398,-485,7581,620,715,685,686, ANGLE_MODE, GPS_FIX_HOME|GPS_FIX|SMALL_ANGLE, IDLE,1,1
2496,53633249,1,-1,-9,4,-1,-1,0,2,0,0,35,39,1326,1.799,1023,-1,23,25,1327,-548,7652,643,685,712,666, ANGLE_MODE, GPS_FIX_HOME|GPS_FIX|SMALL_ANGLE, IDLE,1,1
2504,53637307,1,0,-11,4,-1,-1,1,5,0,0,35,39,1326,1.799,1023,-2,23,25,1194,-577,7712,644,679,726,657, ANGLE_MODE, GPS_FIX_HOME|GPS_FIX|SMALL_ANGLE, IDLE,1,1
2512,53641390,2,0,-15,4,-1,-1,0,6,0,0,35,39,1326,1.799,1023,-3,21,26,1118,-592,7771,642,685,735,644, ANGLE_MODE, GPS_FIX_HOME|GPS_FIX|SMALL_ANGLE, IDLE,1,1
2520,53645481,3,3,-10,4,-1,-1,1,9,0,0,35,38,1326,1.799,1023,-3,18,24,1085,-593,7825,657,659,744,646, ANGLE_MODE, GPS_FIX_HOME|GPS_FIX|SMALL_ANGLE, IDLE,1,1
2528,53649550,4,4,-4,4,0,-1,2,8,0,0,35,38,1328,1.799,1023,-4,17,22,1054,-582,7867,671,646,739,666, ANGLE_MODE, GPS_FIX_HOME|GPS_FIX|SMALL_ANGLE, IDLE,1,1
2536,53653643,4,4,-9,4,0,-1,2,0,0,0,35,38,1328,1.799,1023,-5,18,24,995,-546,7885,643,671,734,674, ANGLE_MODE, GPS_FIX_HOME|GPS_FIX|SMALL_ANGLE, IDLE,1,1
2544,53657697,2,2,-6,4,0,-1,-2,-2,0,0,35,38,1328,1.799,1023,-3,20,23,883,-539,7913,654,689,707,672, ANGLE_MODE, GPS_FIX_HOME|GPS_FIX|SMALL_ANGLE, IDLE,1,1
2552,53661762,1,1,-17,4,0,-2,-5,-7,0,0,34,38,1336,1.808,1023,-1,21,27,767,-526,7886,628,732,709,653, ANGLE_MODE, GPS_FIX_HOME|GPS_FIX|SMALL_ANGLE, IDLE,1,1
2560,53665829,0,0,-14,5,0,-2,-4,-3,0,0,33,38,1336,1.808,1023,0,22,26,584,-513,7858,653,736,724,675, ANGLE_MODE, GPS_FIX_HOME|GPS_FIX|SMALL_ANGLE, IDLE,1,1
2568,53669893,0,-2,-13,5,0,-2,0,-4,0,0,33,38,1336,1.808,1023,-1,23,25,253,-495,7826,642,728,728,689, ANGLE_MODE, GPS_FIX_HOME|GPS_FIX|SMALL_ANGLE, IDLE,1,1
2576,53673960,1,0,-19,5,0,-2,1,1,0,0,33,38,1336,1.808,1023,-1,22,27,-9,-484,7825,641,721,757,667, ANGLE_MODE, GPS_FIX_HOME|GPS_FIX|SMALL_ANGLE, IDLE,1,1
2584,53678012,1,0,-27,5,0,-2,2,2,0,0,33,38,1338,1.808,1023,-2,20,30,-220,-478,7836,630,736,786,653, ANGLE_MODE, GPS_FIX_HOME|GPS_FIX|SMALL_ANGLE, IDLE,1,1
2592,53682342,0,0,-23,5,0,-2,-2,3,0,0,33,39,1338,1.799,1023,-1,21,29,-527,-459,7847,650,738,768,648, ANGLE_MODE, GPS_FIX_HOME|GPS_FIX|SMALL_ANGLE, IDLE,1,1
2600,53686420,2,1,-20,5,0,-2,2,0,0,0,33,39,1338,1.799,1023,-2,20,28,-705,-458,7881,637,723,770,674, ANGLE_MODE, GPS_FIX_HOME|GPS_FIX|SMALL_ANGLE, IDLE,1,1
2608,53690472,4,0,-25,5,0,-2,8,-1,0,0,33,39,1340,1.799,1023,-4,21,30,-793,-461,7923,612,728,793,688, ANGLE_MODE, GPS_FIX_HOME|GPS_FIX|SMALL_ANGLE, IDLE,1,1
2616,53694556,3,1,-26,5,0,-2,1,3,0,0,33,39,1340,1.799,1023,-3,19,30,-797,-479,8004,638,729,796,656, ANGLE_MODE, GPS_FIX_HOME|GPS_FIX|SMALL_ANGLE, IDLE,1,1
2624,53698643,1,1,-36,5,0,-2,-6,0,0,0,33,39,1340,1.799,1023,-1,19,34,-776,-506,8076,628,779,790,623, ANGLE_MODE, GPS_FIX_HOME|GPS_FIX|SMALL_ANGLE, IDLE,1,1
2632,53702698,0,2,-17,5,0,-3,-1,0,0,0,33,40,1340,1.799,1023,-1,19,28,-797,-517,8115,661,730,761,668, ANGLE_MODE, GPS_FIX_HOME|GPS_FIX|SMALL_ANGLE, IDLE,1,1
2640,53706751,0,3,-5,5,0,-3,0,3,0,0,33,40,1340,1.799,1023,0,17,24,-887,-522,8151,691,694,750,684, ANGLE_MODE, GPS_FIX_HOME|GPS_FIX|SMALL_ANGLE, IDLE,1,1
2648,53710852,0,3,-6,6,0,-3,0,0,0,0,33,40,1340,1.799,1023,0,17,24,-880,-530,8200,681,704,744,690, ANGLE_MODE, GPS_FIX_HOME|GPS_FIX|SMALL_ANGLE, IDLE,1,1
2656,53714912,0,4,-6,6,1,-3,1,0,0,0,33,40,1340,1.799,1023,0,16,24,-721,-543,8266,682,697,751,690, ANGLE_MODE, GPS_FIX_HOME|GPS_FIX|SMALL_ANGLE, IDLE,1,1
2664,53718978,0,3,-6,6,1,-3,-3,-2,0,0,33,40,1342,1.799,1023,0,17,24,-503,-560,8327,690,718,738,691, ANGLE_MODE, GPS_FIX_HOME|GPS_FIX|SMALL_ANGLE, IDLE,1,1
2672,53723033,2,4,0,6,1,-3,5,2,0,0,33,40,1342,1.79,1023,-2,16,21,-434,-459,8422,695,669,759,714, ANGLE_MODE, GPS_FIX_HOME|GPS_FIX|SMALL_ANGLE, IDLE,1,1
2680,53727102,4,4,-2,6,1,-3,8,0,0,0,34,40,1342,1.79,1023,-4,17,22,-332,-319,8507,673,669,770,724, ANGLE_MODE, GPS_FIX_HOME|GPS_FIX|SMALL_ANGLE, IDLE,1,1
2688,53731176,2,5,3,6,1,-3,-2,3,0,0,37,42,1342,1.79,1023,-2,17,21,-241,-241,8584,719,672,744,702, ANGLE_MODE, GPS_FIX_HOME|GPS_FIX|SMALL_ANGLE, IDLE,1,1
2696,53735233,1,7,0,6,1,-3,-7,5,0,0,40,42,1342,1.79,1023,-1,18,23,-158,-208,8640,732,684,745,675, ANGLE_MODE, GPS_FIX_HOME|GPS_FIX|SMALL_ANGLE, IDLE,1,1
2704,53739296,3,5,-2,6,2,-3,2,-7,0,0,40,42,1342,1.79,1023,-3,21,24,-83,-192,8683,671,696,745,725, ANGLE_MODE, GPS_FIX_HOME|GPS_FIX|SMALL_ANGLE, IDLE,1,1
2712,53743360,1,3,4,7,2,-3,0,-5,0,0,41,42,1342,1.808,1023,-2,22,21,20,-206,8723,694,690,723,728, ANGLE_MODE, GPS_FIX_HOME|GPS_FIX|SMALL_ANGLE, IDLE,1,1
2720,53747419,1,1,9,7,2,-3,-5,-7,0,0,41,42,1342,1.808,1023,-1,24,20,202,-237,8750,708,698,696,734, ANGLE_MODE, GPS_FIX_HOME|GPS_FIX|SMALL_ANGLE, IDLE,1,1
2728,53751481,3,2,6,7,2,-3,4,4,0,0,45,43,1342,1.808,1023,-4,25,21,435,-268,8768,704,653,751,728, ANGLE_MODE, GPS_FIX_HOME|GPS_FIX|SMALL_ANGLE, IDLE,1,1
2736,53755558,3,4,-1,7,2,-3,3,6,0,0,48,43,1342,1.808,1023,-4,26,24,673,-313,8780,698,663,774,701, ANGLE_MODE, GPS_FIX_HOME|GPS_FIX|SMALL_ANGLE, IDLE,1,1
2744,53759628,4,3,7,7,2,-3,-1,-2,0,0,49,43,1342,1.808,1023,-4,28,21,832,-364,8779,702,673,730,731, ANGLE_MODE, GPS_FIX_HOME|GPS_FIX|SMALL_ANGLE, IDLE,1,1
2752,53763699,4,1,8,7,2,-3,1,-5,0,0,50,45,1333,1.79,1023,-5,30,21,860,-409,8778,671,654,705,733, ANGLE_MODE, GPS_FIX_HOME|GPS_FIX|SMALL_ANGLE, IDLE,1,1
2760,53768017,4,0,0,7,2,-3,0,-8,0,0,50,45,1333,1.79,1023,-4,32,25,813,-443,8770,645,684,715,719, ANGLE_MODE, GPS_FIX_HOME|GPS_FIX|SMALL_ANGLE, IDLE,1,1
2768,53772071,2,0,10,8,2,-3,-3,0,0,0,50,52,1332,1.79,1023,-3,32,25,802,-476,8766,694,654,696,710, ANGLE_MODE, GPS_FIX_HOME|GPS_FIX|SMALL_ANGLE, IDLE,1,1
2776,53776123,0,0,6,8,2,-3,-5,-1,0,0,50,54,1332,1.79,1023,-1,32,27,855,-507,8748,689,674,690,701, ANGLE_MODE, GPS_FIX_HOME|GPS_FIX|SMALL_ANGLE, IDLE,1,1
2784,53780176,0,0,-5,8,2,-3,-3,0,0,0,50,54,1332,1.79,1023,0,32,31,889,-528,8726,667,692,719,676, ANGLE_MODE, GPS_FIX_HOME|GPS_FIX|SMALL_ANGLE, IDLE,1,1
2792,53784288,0,1,-14,8,2,-3,-1,4,0,0,51,54,1330,1.799,1023,1,31,34,902,-545,8696,653,692,747,646, ANGLE_MODE, GPS_FIX_HOME|GPS_FIX|SMALL_ANGLE, IDLE,1,1
2800,53788357,0,1,-14,8,2,-3,0,3,0,0,51,54,1330,1.799,1023,1,31,34,903,-554,8663,647,689,750,651, ANGLE_MODE, GPS_FIX_HOME|GPS_FIX|SMALL_ANGLE, IDLE,1,1
2808,53792425,0,1,-12,8,2,-3,0,0,0,0,51,54,1323,1.799,1023,1,31,34,920,-558,8625,634,676,728,645, ANGLE_MODE, GPS_FIX_HOME|GPS_FIX|SMALL_ANGLE, IDLE,1,1
2816,53796517,0,2,-13,8,2,-3,3,3,0,0,52,54,1323,1.799,1023,0,30,34,884,-569,8570,630,664,743,644, ANGLE_MODE, GPS_FIX_HOME|GPS_FIX|SMALL_ANGLE, IDLE,1,1
2824,53800613,0,1,-17,8,2,-3,1,2,0,0,53,54,1323,1.799,1023,0,32,36,714,-565,8524,619,679,747,636, ANGLE_MODE, GPS_FIX_HOME|GPS_FIX|SMALL_ANGLE, IDLE,1,1
2832,53804708,0,2,-26,8,2,-3,-2,5,0,0,56,54,1321,1.799,1023,0,33,39,799,-611,8477,615,694,758,599, ANGLE_MODE, GPS_FIX_HOME|GPS_FIX|SMALL_ANGLE, IDLE,1,1
2840,53808768,0,3,-33,8,2,-3,-2,5,0,0,60,54,1310,1.799,1023,1,34,41,764,-731,8436,584,684,753,555, ANGLE_MODE, GPS_FIX_HOME|GPS_FIX|SMALL_ANGLE, IDLE,1,1
2848,53812835,0,2,-22,8,3,-3,0,0,0,0,60,54,1310,1.799,1023,0,36,37,653,-801,8387,585,666,726,598, ANGLE_MODE, GPS_FIX_HOME|GPS_FIX|SMALL_ANGLE, IDLE,1,1
2856,53816917,-1,2,-19,8,3,-3,-1,-4,0,0,60,54,1310,1.799,1023,1,37,36,514,-838,8330,589,677,702,607, ANGLE_MODE, GPS_FIX_HOME|GPS_FIX|SMALL_ANGLE, IDLE,1,1
2864,53820971,-1,0,0,8,3,-3,-1,-4,0,0,60,54,1310,1.808,1023,1,38,30,404,-847,8266,624,643,663,646, ANGLE_MODE, GPS_FIX_HOME|GPS_FIX|SMALL_ANGLE, IDLE,1,1
2872,53825028,0,0,7,8,3,-3,1,-3,0,0,60,54,1301,1.808,1023,1,38,27,317,-828,8204,615,600,637,651, ANGLE_MODE, GPS_FIX_HOME|GPS_FIX|SMALL_ANGLE, IDLE,1,1
2880,53829084,0,0,12,8,3,-3,0,-3,0,0,60,54,1301,1.808,1023,0,39,25,252,-800,8134,628,594,621,660, ANGLE_MODE, GPS_FIX_HOME|GPS_FIX|SMALL_ANGLE, IDLE,1,1
2888,53833172,0,0,21,8,3,-3,0,-1,0,0,60,54,1301,1.808,1023,0,39,22,208,-764,8063,646,569,611,677, ANGLE_MODE, GPS_FIX_HOME|GPS_FIX|SMALL_ANGLE, IDLE,1,1
2896,53837239,0,-1,15,8,3,-3,0,-3,0,0,60,54,1291,1.808,1023,0,40,24,179,-728,7983,612,572,592,646, ANGLE_MODE, GPS_FIX_HOME|GPS_FIX|SMALL_ANGLE, IDLE,1,1
2904,53841294,0,0,18,8,3,-3,0,0,0,0,60,54,1291,1.817,1023,0,40,23,149,-686,7898,625,555,594,648, ANGLE_MODE, GPS_FIX_HOME|GPS_FIX|SMALL_ANGLE, IDLE,1,1
2912,53845432,0,-1,19,8,2,-3,1,0,0,0,60,55,1290,1.817,1023,0,40,23,116,-644,7812,619,548,594,652, ANGLE_MODE, GPS_FIX_HOME|GPS_FIX|SMALL_ANGLE, IDLE,1,1
2920,53849539,0,-1,11,8,2,-3,0,0,0,0,61,55,1281,1.817,1023,0,40,26,79,-616,7739,589,548,589,614, ANGLE_MODE, GPS_FIX_HOME|GPS_FIX|SMALL_ANGLE, IDLE,1,1
2928,53853610,0,-1,-2,8,2,-3,0,2,0,0,61,55,1281,1.817,1023,0,40,31,48,-601,7655,564,573,620,583, ANGLE_MODE, GPS_FIX_HOME|GPS_FIX|SMALL_ANGLE, IDLE,1,1
2936,53857980,-1,-1,-17,8,2,-3,-4,1,0,0,61,63,1280,1.817,1023,2,41,40,31,-593,7566,542,615,633,542, ANGLE_MODE, GPS_FIX_HOME|GPS_FIX|SMALL_ANGLE, IDLE,1,1
2944,53862050,-1,-1,-4,7,2,-3,0,0,0,0,61,64,1277,1.826,1023,1,40,36,45,-577,7462,557,585,613,578, ANGLE_MODE, GPS_FIX_HOME|GPS_FIX|SMALL_ANGLE, IDLE,1,1
2952,53866209,-1,0,2,7,2,-3,1,2,0,0,62,64,1277,1.826,1023,2,39,34,28,-547,7327,572,551,605,580, ANGLE_MODE, GPS_FIX_HOME|GPS_FIX|SMALL_ANGLE, IDLE,1,1
2960,53870331,-1,1,18,7,2,-2,0,-1,0,0,62,72,1270,1.826,1023,2,39,33,62,-534,7207,587,515,548,600, ANGLE_MODE, GPS_FIX_HOME|GPS_FIX|SMALL_ANGLE, IDLE,1,1
2968,53874405,-2,1,19,7,2,-2,0,0,0,0,62,72,1270,1.826,1023,3,39,33,88,-511,7094,598,510,547,596, ANGLE_MODE, GPS_FIX_HOME|GPS_FIX|SMALL_ANGLE, IDLE,1,1
2976,53878468,-1,0,18,7,2,-2,0,-3,0,0,62,73,1270,1.826,1023,2,41,33,82,-482,6977,582,522,537,609, ANGLE_MODE, GPS_FIX_HOME|GPS_FIX|SMALL_ANGLE, IDLE,1,1
2984,53882533,-1,-1,17,7,2,-2,0,-1,0,0,62,73,1268,1.817,1023,1,41,34,29,-461,6862,578,514,540,602, ANGLE_MODE, GPS_FIX_HOME|GPS_FIX|SMALL_ANGLE, IDLE,1,1
2992,53886595,-1,-1,7,7,2,-1,-1,1,0,0,62,73,1268,1.817,1023,2,42,37,-10,-469,6744,566,533,562,574, ANGLE_MODE, GPS_FIX_HOME|GPS_FIX|SMALL_ANGLE, IDLE,1,1
3000,53890644,-1,-1,16,7,2,-1,-1,-1,0,0,63,82,1268,1.817,1023,2,42,39,14,-492,6633,579,521,536,598, ANGLE_MODE, GPS_FIX_HOME|GPS_FIX|SMALL_ANGLE, IDLE,1,1
3008,53894724,-2,-1,12,7,2,-1,0,1,0,0,64,82,1268,1.817,1023,2,42,41,58,-505,6536,576,521,551,586, ANGLE_MODE, GPS_FIX_HOME|GPS_FIX|SMALL_ANGLE, IDLE,1,1
3016,53898824,-2,0,8,7,2,-1,-1,0,0,0,64,82,1268,1.817,1023,3,41,42,35,-497,6440,571,533,558,573, ANGLE_MODE, GPS_FIX_HOME|GPS_FIX|SMALL_ANGLE, IDLE,1,1
3024,53902894,-2,0,4,7,2,-1,1,1,0,0,64,82,1268,1.817,1023,3,42,43,-61,-481,6346,562,533,571,569, ANGLE_MODE, GPS_FIX_HOME|GPS_FIX|SMALL_ANGLE, IDLE,1,1
3032,53906977,-2,0,4,6,2,-1,0,-1,0,0,64,82,1268,1.817,1023,2,42,44,-110,-468,6247,555,541,564,574, ANGLE_MODE, GPS_FIX_HOME|GPS_FIX|SMALL_ANGLE, IDLE,1,1
3040,53911038,-2,-2,9,6,2,-1,0,-3,0,0,64,83,1267,1.817,1012,2,44,42,-56,-460,6159,557,541,541,588, ANGLE_MODE, GPS_FIX_HOME|GPS_FIX|SMALL_ANGLE, IDLE,1,1
3048,53915112,-2,-1,7,6,2,-1,0,0,0,0,65,83,1267,1.817,1012,2,43,43,-217,-359,6058,564,533,555,574, ANGLE_MODE, GPS_FIX_HOME|GPS_FIX|SMALL_ANGLE, IDLE,1,1
3056,53919166,-1,0,21,6,2,0,0,2,0,0,65,92,1267,1.817,1012,2,42,43,-232,-300,5977,598,497,533,599, ANGLE_MODE, GPS_FIX_HOME|GPS_FIX|SMALL_ANGLE, IDLE,1,1
3064,53923223,-2,0,12,6,2,0,1,0,0,0,65,92,1257,1.817,1012,2,42,47,-241,-291,5908,551,498,528,568, ANGLE_MODE, GPS_FIX_HOME|GPS_FIX|SMALL_ANGLE, IDLE,1,1
3072,53927288,-2,0,3,6,2,0,0,-3,0,0,65,92,1257,1.817,1012,3,42,50,-279,-301,5848,531,526,536,552, ANGLE_MODE, GPS_FIX_HOME|GPS_FIX|SMALL_ANGLE, IDLE,1,1
3080,53931352,-1,-1,4,6,2,0,0,1,0,0,65,93,1257,1.817,1012,2,43,50,-300,-301,5796,542,514,541,549, ANGLE_MODE, GPS_FIX_HOME|GPS_FIX|SMALL_ANGLE, IDLE,1,1
3088,53935438,-2,-1,5,6,2,0,0,-2,0,0,65,93,1257,1.817,1012,2,43,50,-283,-285,5758,532,520,532,560, ANGLE_MODE, GPS_FIX_HOME|GPS_FIX|SMALL_ANGLE, IDLE,1,1
3096,53939768,-1,0,10,6,2,0,1,3,0,0,65,93,1257,1.817,1012,1,42,48,-248,-288,5719,554,494,538,560, ANGLE_MODE, GPS_FIX_HOME|GPS_FIX|SMALL_ANGLE, IDLE,1,1
3104,53943829,0,0,18,6,1,0,1,0,0,0,65,100,1257,1.817,1012,0,42,49,-214,-330,5669,559,483,517,585, ANGLE_MODE, GPS_FIX_HOME|GPS_FIX|SMALL_ANGLE, IDLE,1,1
3112,53947885,0,0,16,6,1,0,0,-1,0,0,65,100,1257,1.817,1012,0,42,50,-171,-371,5630,557,490,513,585, ANGLE_MODE, GPS_FIX_HOME|GPS_FIX|SMALL_ANGLE, IDLE,1,1
3120,53951992,0,-1,9,5,1,0,0,0,0,0,65,102,1249,1.817,1012,1,42,53,-136,-392,5604,531,488,512,549, ANGLE_MODE, GPS_FIX_HOME|GPS_FIX|SMALL_ANGLE, IDLE,1,1
3128,53956046,-1,0,3,5,1,0,0,1,0,0,65,102,1247,1.817,1012,1,42,56,-125,-403,5570,519,493,523,528, ANGLE_MODE, GPS_FIX_HOME|GPS_FIX|SMALL_ANGLE, IDLE,1,1
3136,53960112,0,0,8,5,1,0,0,1,0,0,65,102,1247,1.817,1012,1,42,54,-124,-414,5521,531,481,514,538, ANGLE_MODE, GPS_FIX_HOME|GPS_FIX|SMALL_ANGLE, IDLE,1,1
3144,53964192,-1,0,26,5,1,0,-2,0,0,0,65,111,1247,1.826,1012,1,42,53,-85,-418,5470,568,456,467,573, ANGLE_MODE, GPS_FIX_HOME|GPS_FIX|SMALL_ANGLE, IDLE,1,1
3152,53968264,-2,0,15,5,1,1,-1,0,0,0,65,111,1247,1.826,1012,2,42,57,-48,-428,5444,547,474,490,553, ANGLE_MODE, GPS_FIX_HOME|GPS_FIX|SMALL_ANGLE, IDLE,1,1
3160,53972321,-2,0,5,5,1,1,0,0,0,0,65,111,1247,1.826,1012,2,41,60,-44,-454,5408,528,489,515,533, ANGLE_MODE, GPS_FIX_HOME|GPS_FIX|SMALL_ANGLE, IDLE,1,1
3168,53976388,-1,0,5,5,1,1,-1,0,0,0,65,111,1246,1.826,1012,2,41,60,-39,-469,5358,527,490,508,530, ANGLE_MODE, GPS_FIX_HOME|GPS_FIX|SMALL_ANGLE, IDLE,1,1
3176,53980459,-2,0,4,5,1,1,-2,-1,0,0,65,111,1246,1.826,1012,2,42,61,-29,-454,5313,523,500,503,530, ANGLE_MODE, GPS_FIX_HOME|GPS_FIX|SMALL_ANGLE, IDLE,1,1
3184,53984521,-3,-1,5,5,1,1,1,0,0,0,65,112,1244,1.826,1012,3,42,61,-37,-435,5279,518,486,506,529, ANGLE_MODE, GPS_FIX_HOME|GPS_FIX|SMALL_ANGLE, IDLE,1,1
3192,53988585,-2,0,8,5,1,1,0,0,0,0,65,112,1244,1.826,1012,2,41,60,8,-479,5233,526,481,499,533, ANGLE_MODE, GPS_FIX_HOME|GPS_FIX|SMALL_ANGLE, IDLE,1,1
3200,53992643,-2,0,12,5,1,1,-1,-1,0,-2,65,112,1244,1.826,1012,2,42,59,81,-544,5172,537,482,481,539, ANGLE_MODE, GPS_FIX_HOME|GPS_FIX|SMALL_ANGLE, IDLE,1,1
3208,53996700,-3,-1,7,4,1,1,0,0,0,-2,65,112,1244,1.826,1012,2,42,60,155,-585,5132,523,489,495,532, ANGLE_MODE, GPS_FIX_HOME|GPS_FIX|SMALL_ANGLE, IDLE,1,1
3216,54000767,-2,-1,0,4,1,1,0,3,0,-2,65,112,1244,1.817,1012,1,42,63,135,-578,5096,517,494,516,512, ANGLE_MODE, GPS_FIX_HOME|GPS_FIX|SMALL_ANGLE, IDLE,1,1
3224,54004824,-3,0,5,4,1,2,0,0,0,-2,65,112,1244,1.817,1012,1,41,61,99,-576,5048,525,487,502,525, ANGLE_MODE, GPS_FIX_HOME|GPS_FIX|SMALL_ANGLE, IDLE,1,1
3232,54008883,-3,0,7,4,1,2,1,-1,0,-2,65,112,1242,1.817,1012,1,41,60,135,-569,5013,525,486,494,534, ANGLE_MODE, GPS_FIX_HOME|GPS_FIX|SMALL_ANGLE, IDLE,1,1
3240,54012949,-2,0,6,4,1,2,0,6,0,-2,66,112,1242,1.817,1012,1,41,61,168,-555,4994,537,468,511,508, ANGLE_MODE, GPS_FIX_HOME|GPS_FIX|SMALL_ANGLE, IDLE,1,1
3248,54017016,-2,1,6,4,1,2,1,1,0,-2,66,112,1242,1.817,1012,1,41,61,109,-543,4971,527,472,505,518, ANGLE_MODE, GPS_FIX_HOME|GPS_FIX|SMALL_ANGLE, IDLE,1,1
3256,54021076,-2,1,3,4,1,2,0,-3,0,-2,66,112,1242,1.826,1012,1,41,62,49,-512,4929,517,490,497,519, ANGLE_MODE, GPS_FIX_HOME|GPS_FIX|SMALL_ANGLE, IDLE,1,1
3264,54025150,-3,1,3,3,1,2,-2,-2,0,-3,66,112,1242,1.826,1012,1,41,62,75,-479,4904,522,496,492,512, ANGLE_MODE, GPS_FIX_HOME|GPS_FIX|SMALL_ANGLE, IDLE,1,1
3272,54029208,-3,0,0,3,1,2,0,0,0,-4,66,112,1242,1.826,1012,1,43,63,73,-470,4894,514,497,505,507, ANGLE_MODE, GPS_FIX_HOME|GPS_FIX|SMALL_ANGLE, IDLE,1,1
3280,54033560,-5,0,2,3,1,2,-8,-2,0,-8,66,112,1242,1.826,1012,0,42,62,30,-457,4861,534,519,474,497, ANGLE_MODE, GPS_FIX_HOME|GPS_FIX|SMALL_ANGLE, IDLE,1,1
3288,54037636,-5,1,11,3,1,2,0,3,0,-11,67,112,1242,1.826,1012,-2,41,59,-23,-439,4830,549,468,488,518, ANGLE_MODE, GPS_FIX_HOME|GPS_FIX|SMALL_ANGLE, IDLE,1,1
3296,54041685,-6,0,7,2,1,2,1,0,0,-12,68,112,1242,1.826,1012,-1,43,60,-31,-405,4810,535,486,485,517, ANGLE_MODE, GPS_FIX_HOME|GPS_FIX|SMALL_ANGLE, IDLE,1,1
3304,54045739,-4,0,-1,2,1,2,6,0,0,-12,68,112,1242,1.826,1012,-4,45,63,-28,-399,4800,499,493,514,518, ANGLE_MODE, GPS_FIX_HOME|GPS_FIX|SMALL_ANGLE, IDLE,1,1
3312,54049827,-1,0,6,2,1,2,5,0,0,-12,68,112,1242,1.826,1012,-7,43,60,-59,-421,4785,517,470,502,534, ANGLE_MODE, GPS_FIX_HOME|GPS_FIX|SMALL_ANGLE, IDLE,1,1
3320,54053895,0,0,4,2,1,2,2,-2,0,-12,68,112,1242,1.826,1012,-7,45,61,-79,-409,4772,508,485,498,533, ANGLE_MODE, GPS_FIX_HOME|GPS_FIX|SMALL_ANGLE, IDLE,1,1
3328,54057956,-1,-1,0,2,1,2,-2,-1,0,-15,68,112,1242,1.826,1012,-8,46,63,-89,-382,4768,510,506,494,512, ANGLE_MODE, GPS_FIX_HOME|GPS_FIX|SMALL_ANGLE, IDLE,1,1
3336,54062038,-3,-1,2,2,1,2,-5,-1,0,-19,68,112,1242,1.817,1012,-9,45,62,-111,-398,4760,529,508,479,506, ANGLE_MODE, GPS_FIX_HOME|GPS_FIX|SMALL_ANGLE, IDLE,1,1
3344,54066119,-2,-1,5,2,1,3,-1,0,0,-19,68,112,1242,1.817,1012,-10,45,61,-145,-293,4686,525,494,485,519, ANGLE_MODE, GPS_FIX_HOME|GPS_FIX|SMALL_ANGLE, IDLE,1,1
3352,54070184,-3,-1,3,2,1,3,2,0,0,-19,68,112,1242,1.817,1012,-9,46,62,-145,-168,4603,516,489,498,520, ANGLE_MODE, GPS_FIX_HOME|GPS_FIX|SMALL_ANGLE, IDLE,1,1
3360,54074253,-2,-1,0,1,1,3,3,0,0,-19,68,112,1242,1.817,1012,-10,45,63,-188,-74,4562,507,494,506,516, ANGLE_MODE, GPS_FIX_HOME|GPS_FIX|SMALL_ANGLE, IDLE,1,1
3368,54078330,0,-1,5,1,1,3,0,-1,0,-20,68,112,1242,1.817,1012,-12,45,61,-224,-56,4530,515,487,491,530, ANGLE_MODE, GPS_FIX_HOME|GPS_FIX|SMALL_ANGLE, IDLE,1,1
3376,54082446,0,-2,2,1,1,3,0,-1,0,-22,68,112,1240,1.826,1012,-13,46,62,-182,-59,4509,508,493,487,519, ANGLE_MODE, GPS_FIX_HOME|GPS_FIX|SMALL_ANGLE, IDLE,1,1
3384,54086509,-3,-1,2,1,1,3,-6,2,0,-26,68,112,1240,1.826,1012,-12,46,62,-170,-59,4524,535,505,478,490, ANGLE_MODE, GPS_FIX_HOME|GPS_FIX|SMALL_ANGLE, IDLE,1,1
3392,54090602,-4,0,1,1,1,3,1,3,0,-28,69,111,1240,1.826,1012,-13,43,62,-221,-74,4538,525,486,499,496, ANGLE_MODE, GPS_FIX_HOME|GPS_FIX|SMALL_ANGLE, IDLE,1,1
